[
  {
    "name": "TOUR DE LA BOULANGERIE",
    "sector": "restaurants",
    "address": "170 ROUTE DE VANNES 44700 ORVAULT",
    "city": "44114",
    "phone": null,
    "email": null,
    "website": "https://boulangerie.org/",
    "latitude": 47.24068973,
    "longitude": -1.591712423,
    "hasWebsite": true,
    "hasActiveWebsite": true,
    "hasSocialMedia": false,
    "score": 35,
    "webVisibilityScore": 35,
    "status": "nouveau"
  },
  {
    "name": "RESTAURANT LAMACCOTTE",
    "sector": "restaurants",
    "address": "7 RUE SAINT DENIS 44000 NANTES",
    "city": "44109",
    "phone": null,
    "email": null,
    "website": "https://www.lamaccotte-restaurant-nantes.com/",
    "latitude": 47.217872648,
    "longitude": -1.552058398,
    "hasWebsite": true,
    "hasActiveWebsite": true,
    "hasSocialMedia": false,
    "score": 30,
    "webVisibilityScore": 30,
    "status": "nouveau"
  },
  {
    "name": "RESTAURANT LE PELICAN",
    "sector": "restaurants",
    "address": "13 PLACE GEORGES GAUDET 44140 GENESTON",
    "city": "44223",
    "phone": null,
    "email": null,
    "website": "https://www.restaurantlepelican.fr/le-restaurant/",
    "latitude": 47.0560592337953,
    "longitude": -1.5134078371832,
    "hasWebsite": true,
    "hasActiveWebsite": true,
    "hasSocialMedia": false,
    "score": 30,
    "webVisibilityScore": 30,
    "status": "nouveau"
  },
  {
    "name": "MAJU RESTAURANT (RESTAURANT MAJU)",
    "sector": "restaurants",
    "address": "18 QUAI SAINT-PAUL 44420 LA TURBALLE",
    "city": "44211",
    "phone": null,
    "email": null,
    "website": "https://maju-restaurant.fr/",
    "latitude": 47.348516462,
    "longitude": -2.512494663,
    "hasWebsite": true,
    "hasActiveWebsite": true,
    "hasSocialMedia": false,
    "score": 30,
    "webVisibilityScore": 30,
    "status": "nouveau"
  },
  {
    "name": "LE COIFFEUR D'ADRIEN",
    "sector": "artisans",
    "address": "4 RUE DE MAUVES 44470 THOUARE-SUR-LOIRE",
    "city": "44204",
    "phone": null,
    "email": null,
    "website": "https://www.lecoiffeur-nantes.fr/",
    "latitude": 47.266976878,
    "longitude": -1.440152676,
    "hasWebsite": true,
    "hasActiveWebsite": true,
    "hasSocialMedia": false,
    "score": 30,
    "webVisibilityScore": 30,
    "status": "nouveau"
  },
  {
    "name": "ARTISAN COIFFEUR VP",
    "sector": "artisans",
    "address": "39 RUE DES HALLES 44150 ANCENIS-SAINT-GEREON",
    "city": "44003",
    "phone": null,
    "email": null,
    "website": "https://www.planity.com/artisan-coiffeur-vp-44150-ancenis",
    "latitude": 47.365229359,
    "longitude": -1.178349953,
    "hasWebsite": true,
    "hasActiveWebsite": true,
    "hasSocialMedia": false,
    "score": 30,
    "webVisibilityScore": 30,
    "status": "nouveau"
  },
  {
    "name": "J&M RESTAURANT",
    "sector": "restaurants",
    "address": "ROUTE NATIONALE 775 LD SAINTE-MARIE 44590 LUSANGER",
    "city": "44086",
    "phone": null,
    "email": null,
    "website": "https://nantes.maville.com/restaurants-bars/restaurant/jym-67975",
    "latitude": 47.681389318,
    "longitude": -1.594883175,
    "hasWebsite": true,
    "hasActiveWebsite": true,
    "hasSocialMedia": false,
    "score": 25,
    "webVisibilityScore": 25,
    "status": "nouveau"
  },
  {
    "name": "SOULMATE RESTAURANT (A CASETTA)",
    "sector": "restaurants",
    "address": "ZI DE LA BELLE ETOILE 8 RUE ANTARES 44470 CARQUEFOU",
    "city": "44026",
    "phone": null,
    "email": null,
    "website": "https://www.a-casetta.com/notre-carte/nantes/",
    "latitude": 47.2841127008601,
    "longitude": -1.45150666293589,
    "hasWebsite": true,
    "hasActiveWebsite": true,
    "hasSocialMedia": false,
    "score": 25,
    "webVisibilityScore": 25,
    "status": "nouveau"
  },
  {
    "name": "RESTAURANT CHEZ NOUS",
    "sector": "restaurants",
    "address": "5 RUE JEAN MONNET 44260 MALVILLE",
    "city": "44089",
    "phone": null,
    "email": null,
    "website": "https://nous-restaurant-nantes.eatbu.com/?lang=fr",
    "latitude": 47.334638605,
    "longitude": -1.811616018,
    "hasWebsite": true,
    "hasActiveWebsite": true,
    "hasSocialMedia": false,
    "score": 25,
    "webVisibilityScore": 25,
    "status": "nouveau"
  },
  {
    "name": "BOULANGERIES PAUL",
    "sector": "artisans",
    "address": "BATIMENT D.E 344 AVENUE DE LA MARNE 59700 MARCQ-EN-BARŒUL",
    "city": "59378",
    "phone": null,
    "email": null,
    "website": "http://www.paul.fr/",
    "latitude": 50.678029398,
    "longitude": 3.1169136021,
    "hasWebsite": true,
    "hasActiveWebsite": true,
    "hasSocialMedia": false,
    "score": 25,
    "webVisibilityScore": 25,
    "status": "nouveau"
  },
  {
    "name": "BOULANGERIE PATISSERIE OLIVIER",
    "sector": "artisans",
    "address": "BOURG 56190 ARZAL",
    "city": "56004",
    "phone": null,
    "email": null,
    "website": "https://olivier-bajard.com/",
    "latitude": 47.51572061,
    "longitude": -2.377157465,
    "hasWebsite": true,
    "hasActiveWebsite": true,
    "hasSocialMedia": false,
    "score": 25,
    "webVisibilityScore": 25,
    "status": "nouveau"
  },
  {
    "name": "BOULANGERIE PATISSERIE ALLARD",
    "sector": "artisans",
    "address": "24 RUE PIERRE BLARD 44800 SAINT-HERBLAIN",
    "city": "44162",
    "phone": null,
    "email": null,
    "website": "https://patisserieallard.fr/",
    "latitude": 47.21191887,
    "longitude": -1.652991576,
    "hasWebsite": true,
    "hasActiveWebsite": true,
    "hasSocialMedia": false,
    "score": 25,
    "webVisibilityScore": 25,
    "status": "nouveau"
  },
  {
    "name": "BOULANGERIE PATISSERIE GUIBERT",
    "sector": "artisans",
    "address": "2 BOULEVARD LUDOVIC DARDENNE 31110 BAGNERES-DE-LUCHON",
    "city": "31042",
    "phone": null,
    "email": null,
    "website": "https://autoreserve.com/en/restaurants/or21m9Lg7MgBmVp1THK7",
    "latitude": 42.78978507,
    "longitude": 0.5961604694,
    "hasWebsite": true,
    "hasActiveWebsite": true,
    "hasSocialMedia": false,
    "score": 25,
    "webVisibilityScore": 25,
    "status": "nouveau"
  },
  {
    "name": "LA PETITE BOULANGERIE",
    "sector": "artisans",
    "address": "1 PLACE SAINT FELIX 44000 NANTES",
    "city": "44109",
    "phone": null,
    "email": null,
    "website": "https://www.lapetiteboulangerie.fr/",
    "latitude": 47.230840779,
    "longitude": -1.5557105,
    "hasWebsite": true,
    "hasActiveWebsite": true,
    "hasSocialMedia": false,
    "score": 25,
    "webVisibilityScore": 25,
    "status": "nouveau"
  },
  {
    "name": "BOULANGERIE ISAAC",
    "sector": "artisans",
    "address": "93 ROUTE DE NORT-SUR-ERDRE 44850 LIGNE",
    "city": "44082",
    "phone": null,
    "email": null,
    "website": "https://agroalimentaire.e-pro.fr/loire-atlantique/boulangerie-isaac_f3948969",
    "latitude": 47.412848175,
    "longitude": -1.384343593,
    "hasWebsite": true,
    "hasActiveWebsite": true,
    "hasSocialMedia": false,
    "score": 25,
    "webVisibilityScore": 25,
    "status": "nouveau"
  },
  {
    "name": "BOULANGERIE NICOLAS",
    "sector": "artisans",
    "address": "CTRE CIAL LE GRAND PRE ROUTE DE BOUGUENAIS 44620 LA MONTAGNE",
    "city": "44101",
    "phone": null,
    "email": null,
    "website": "https://www.boulangerie-nicolas.fr/patisserie/",
    "latitude": 47.185876764,
    "longitude": -1.674236173,
    "hasWebsite": true,
    "hasActiveWebsite": true,
    "hasSocialMedia": false,
    "score": 25,
    "webVisibilityScore": 25,
    "status": "nouveau"
  },
  {
    "name": "BOULANGERIE DION",
    "sector": "artisans",
    "address": "5 PLACE DE L'HOTEL DE VILLE 85520 JARD-SUR-MER",
    "city": "85114",
    "phone": null,
    "email": null,
    "website": "https://www.boulangeriedion.fr/",
    "latitude": 46.416737129,
    "longitude": -1.576302898,
    "hasWebsite": true,
    "hasActiveWebsite": true,
    "hasSocialMedia": false,
    "score": 25,
    "webVisibilityScore": 25,
    "status": "nouveau"
  },
  {
    "name": "BOULANGERIE LE TREIZE",
    "sector": "artisans",
    "address": "13 BOULEVARD DU LUXEMBOURG 44330 VALLET",
    "city": "44212",
    "phone": null,
    "email": null,
    "website": "https://uneboulangerie.fr/44/vallet/boulangerie-le-treize-wie",
    "latitude": 47.16579949,
    "longitude": -1.271879968,
    "hasWebsite": true,
    "hasActiveWebsite": true,
    "hasSocialMedia": false,
    "score": 25,
    "webVisibilityScore": 25,
    "status": "nouveau"
  },
  {
    "name": "ARNO BOULANGERIE",
    "sector": "artisans",
    "address": "16 RUE DE VERDUN 44000 NANTES",
    "city": "44109",
    "phone": null,
    "email": null,
    "website": "https://www.infos-nantes.fr/arno-boulangerie-a-nantes/",
    "latitude": 47.2170580414388,
    "longitude": -1.55241028026737,
    "hasWebsite": true,
    "hasActiveWebsite": true,
    "hasSocialMedia": false,
    "score": 25,
    "webVisibilityScore": 25,
    "status": "nouveau"
  },
  {
    "name": "SOC INTERP ARTISAN GARANTIE INVESTISSE (SIAGI)",
    "sector": "artisans",
    "address": "2 RUE JEAN-BAPTISTE PIGALLE 75009 PARIS",
    "city": "75109",
    "phone": null,
    "email": null,
    "website": null,
    "latitude": 48.878008881,
    "longitude": 2.3321722996,
    "hasWebsite": false,
    "hasActiveWebsite": false,
    "hasSocialMedia": false,
    "score": 55,
    "webVisibilityScore": 55,
    "status": "nouveau"
  },
  {
    "name": "LES ARTISANS DU CHATEAU",
    "sector": "artisans",
    "address": "CHATEAU DE LA GRESSIERE RUE DE LA NOUE FLEURIE 44760 LA BERNERIE-EN-RETZ",
    "city": "44012",
    "phone": null,
    "email": null,
    "website": "https://www.chateaunantes.fr/",
    "latitude": 47.086434277,
    "longitude": -2.035251624,
    "hasWebsite": true,
    "hasActiveWebsite": true,
    "hasSocialMedia": false,
    "score": 25,
    "webVisibilityScore": 25,
    "status": "nouveau"
  },
  {
    "name": "COIFFEURS ASSOCIES",
    "sector": "artisans",
    "address": "5 BOULEVARD DE LA FRATERNITE 44100 NANTES",
    "city": "44109",
    "phone": null,
    "email": null,
    "website": "https://www.planity.com/coiffeurs-associes-44100-nantes",
    "latitude": 47.2145220941226,
    "longitude": -1.58622625142232,
    "hasWebsite": true,
    "hasActiveWebsite": true,
    "hasSocialMedia": false,
    "score": 25,
    "webVisibilityScore": 25,
    "status": "nouveau"
  },
  {
    "name": "LA MAISON DU COIFFEUR",
    "sector": "artisans",
    "address": "13 QUAI DE LA FOSSE 44300 NANTES",
    "city": "44109",
    "phone": null,
    "email": null,
    "website": "https://la-maison-du-coiffeur.com/",
    "latitude": 47.211484144,
    "longitude": -1.560452901,
    "hasWebsite": true,
    "hasActiveWebsite": true,
    "hasSocialMedia": false,
    "score": 25,
    "webVisibilityScore": 25,
    "status": "nouveau"
  },
  {
    "name": "SAMIR COIFFEUR",
    "sector": "artisans",
    "address": "CENTRE COMMERCIAL DES DERVALLIERES BOULEVARD JEAN INGRES 44100 NANTES",
    "city": "44109",
    "phone": null,
    "email": null,
    "website": "https://www.planity.com/samir-coiffure-44100-nantes",
    "latitude": 47.222246755,
    "longitude": -1.599299202,
    "hasWebsite": true,
    "hasActiveWebsite": true,
    "hasSocialMedia": false,
    "score": 25,
    "webVisibilityScore": 25,
    "status": "nouveau"
  },
  {
    "name": "6 ARTISAN COIFFEUR",
    "sector": "artisans",
    "address": "6 PLACE DE L’EUROPE 44450 SAINT-JULIEN-DE-CONCELLES",
    "city": "44169",
    "phone": null,
    "email": null,
    "website": "https://www.6coiffure.com/",
    "latitude": 47.253885063,
    "longitude": -1.385468798,
    "hasWebsite": true,
    "hasActiveWebsite": true,
    "hasSocialMedia": false,
    "score": 25,
    "webVisibilityScore": 25,
    "status": "nouveau"
  },
  {
    "name": "EXPOSITO COIFFEURS LE POULIGUEN",
    "sector": "artisans",
    "address": "10 RUE DE L'EGLISE 44510 LE POULIGUEN",
    "city": "44135",
    "phone": null,
    "email": null,
    "website": "https://www.planity.com/exposito-coiffeurs-44510-le-pouliguen",
    "latitude": 47.276814171,
    "longitude": -2.42881152,
    "hasWebsite": true,
    "hasActiveWebsite": true,
    "hasSocialMedia": false,
    "score": 25,
    "webVisibilityScore": 25,
    "status": "nouveau"
  },
  {
    "name": "BUREAU VERITAS CONSTRUCTION",
    "sector": "artisans",
    "address": "1 PL ZAHA HADID 92400 COURBEVOIE",
    "city": "92026",
    "phone": null,
    "email": null,
    "website": "https://construction.bureauveritas.fr/",
    "latitude": 48.889474111496,
    "longitude": 2.25095888639961,
    "hasWebsite": true,
    "hasActiveWebsite": true,
    "hasSocialMedia": false,
    "score": 25,
    "webVisibilityScore": 25,
    "status": "nouveau"
  },
  {
    "name": "APAVE INFRASTRUCTURES ET CONSTRUCTION FRANCE",
    "sector": "artisans",
    "address": "6 RUE DU GENERAL AUDRAN 92400 COURBEVOIE",
    "city": "92026",
    "phone": null,
    "email": null,
    "website": "https://infrastructures-construction.france.apave.com/",
    "latitude": 48.8899461392432,
    "longitude": 2.2549610424377,
    "hasWebsite": true,
    "hasActiveWebsite": true,
    "hasSocialMedia": false,
    "score": 25,
    "webVisibilityScore": 25,
    "status": "nouveau"
  },
  {
    "name": "CERUTTI CONSTRUCTION",
    "sector": "artisans",
    "address": "27 RUE DE LA TELEMATIQUE 42000 SAINT-ETIENNE",
    "city": "42218",
    "phone": null,
    "email": null,
    "website": "https://www.groupecerutti.fr/",
    "latitude": 45.4565449568847,
    "longitude": 4.39460703085485,
    "hasWebsite": true,
    "hasActiveWebsite": true,
    "hasSocialMedia": false,
    "score": 25,
    "webVisibilityScore": 25,
    "status": "nouveau"
  },
  {
    "name": "MORTIER CONSTRUCTION",
    "sector": "BTP",
    "address": "TECHNOPARC L'AUBINIERE 11 AVENUE DES AMETHYSTES 44300 NANTES",
    "city": "44109",
    "phone": null,
    "email": null,
    "website": "https://www.mortier-construction.fr/",
    "latitude": 47.2605808238559,
    "longitude": -1.49724770009549,
    "hasWebsite": true,
    "hasActiveWebsite": true,
    "hasSocialMedia": false,
    "score": 25,
    "webVisibilityScore": 25,
    "status": "nouveau"
  },
  {
    "name": "ALTA CONSTRUCTIONS",
    "sector": "artisans",
    "address": "90 RUE DES LACS 79290 LORETZ-D'ARGENTON",
    "city": "79014",
    "phone": null,
    "email": null,
    "website": "https://www.dnb.com/business-directory/company-profiles.alta_constructions.afa0d30b0f24d90d809bf699440e8c15.html",
    "latitude": 47.0436290223318,
    "longitude": -0.263775053533614,
    "hasWebsite": true,
    "hasActiveWebsite": true,
    "hasSocialMedia": false,
    "score": 25,
    "webVisibilityScore": 25,
    "status": "nouveau"
  },
  {
    "name": "EIFFAGE CONSTRUCTION BRETAGNE (ECB)",
    "sector": "BTP",
    "address": "2EME ETAGE 24 RUE DU BOURG NOUVEAU 35000 RENNES",
    "city": "35238",
    "phone": null,
    "email": null,
    "website": "https://www.eiffageconstruction.com/",
    "latitude": 48.113055026,
    "longitude": -1.717650945,
    "hasWebsite": true,
    "hasActiveWebsite": true,
    "hasSocialMedia": false,
    "score": 25,
    "webVisibilityScore": 25,
    "status": "nouveau"
  },
  {
    "name": "LOCKROY CONSTRUCTION (LOCKROY CONSTRUCTION)",
    "sector": "artisans",
    "address": "14 RUE DELAMBRE 75014 PARIS",
    "city": "75114",
    "phone": null,
    "email": null,
    "website": "https://lockroy.fr/",
    "latitude": 48.842213826,
    "longitude": 2.327961622,
    "hasWebsite": true,
    "hasActiveWebsite": true,
    "hasSocialMedia": false,
    "score": 25,
    "webVisibilityScore": 25,
    "status": "nouveau"
  },
  {
    "name": "DEPREUX-CONSTRUCTION",
    "sector": "artisans",
    "address": "146 RTE DES SORINIERES 44400 REZE",
    "city": "44143",
    "phone": null,
    "email": null,
    "website": "https://www.depreux-construction.com/",
    "latitude": 47.15435439,
    "longitude": -1.536792053,
    "hasWebsite": true,
    "hasActiveWebsite": true,
    "hasSocialMedia": false,
    "score": 25,
    "webVisibilityScore": 25,
    "status": "nouveau"
  },
  {
    "name": "ORVAULT SPORTS BASKET",
    "sector": "sport/bien-être",
    "address": "COMPLEXE SPORTIF LA FREBAUDIERE 14 RUE DU RAFFUNEAU 44700 ORVAULT",
    "city": "44114",
    "phone": null,
    "email": null,
    "website": "https://orvault-sports-basket.fr/",
    "latitude": 47.2728844912826,
    "longitude": -1.62439085279237,
    "hasWebsite": true,
    "hasActiveWebsite": true,
    "hasSocialMedia": false,
    "score": 25,
    "webVisibilityScore": 25,
    "status": "nouveau"
  },
  {
    "name": "AILES SPORT BOUGUENAIS REZE VOLLEY BALL (ASBR)",
    "sector": "sport/bien-être",
    "address": "11 RUE DE LA GALARNIERE 44400 REZE",
    "city": "44143",
    "phone": null,
    "email": null,
    "website": "https://asbrezevolley44.fr/club/",
    "latitude": 47.1780301796734,
    "longitude": -1.55856895472827,
    "hasWebsite": true,
    "hasActiveWebsite": true,
    "hasSocialMedia": false,
    "score": 25,
    "webVisibilityScore": 25,
    "status": "nouveau"
  },
  {
    "name": "RESTAURANT BENUREAU",
    "sector": "restaurants",
    "address": "LE GRAND PLESSIS 44980 SAINTE-LUCE-SUR-LOIRE",
    "city": "44172",
    "phone": null,
    "email": null,
    "website": "https://www.restaurantbenureau.com/",
    "latitude": 47.24544452,
    "longitude": -1.469668708,
    "hasWebsite": true,
    "hasActiveWebsite": true,
    "hasSocialMedia": false,
    "score": 20,
    "webVisibilityScore": 20,
    "status": "nouveau"
  },
  {
    "name": "RESTAURANT LE JADE (LE JADE)",
    "sector": "restaurants",
    "address": "3 ESC FOUQUET 44210 PORNIC",
    "city": "44131",
    "phone": null,
    "email": null,
    "website": "https://lacarte.menu/restaurants/nantes/jade-171",
    "latitude": 47.115155229,
    "longitude": -2.103622774,
    "hasWebsite": true,
    "hasActiveWebsite": true,
    "hasSocialMedia": false,
    "score": 20,
    "webVisibilityScore": 20,
    "status": "nouveau"
  },
  {
    "name": "FP RESTAURANT",
    "sector": "restaurants",
    "address": "32 AVENUE DE LA VENDEE 44140 AIGREFEUILLE-SUR-MAINE",
    "city": "44002",
    "phone": null,
    "email": null,
    "website": "https://www.lacigale.com/",
    "latitude": 47.074955276,
    "longitude": -1.398150741,
    "hasWebsite": true,
    "hasActiveWebsite": true,
    "hasSocialMedia": false,
    "score": 20,
    "webVisibilityScore": 20,
    "status": "nouveau"
  },
  {
    "name": "SARL GEM BOULANGERIE (MAISON GUICHARD)",
    "sector": "artisans",
    "address": "53 AVENUE DE LA LIBERATION 35380 PLELAN-LE-GRAND",
    "city": "35223",
    "phone": null,
    "email": null,
    "website": "https://entreprises.lefigaro.fr/sarl-gem-boulangerie-44/entreprise-524789161",
    "latitude": 48.001971341,
    "longitude": -2.097710022,
    "hasWebsite": true,
    "hasActiveWebsite": true,
    "hasSocialMedia": false,
    "score": 20,
    "webVisibilityScore": 20,
    "status": "nouveau"
  },
  {
    "name": "BOULANGERIE SPPINEAU (BOULANGERIE SPPINEAU SARL)",
    "sector": "artisans",
    "address": "9 RUE DU MARCHE 44270 MACHECOUL-SAINT-MEME",
    "city": "44087",
    "phone": null,
    "email": null,
    "website": "https://www.myboulange.fr/44/machecoul-saint-meme/boulangerie-sarl-sppineau-34407",
    "latitude": 46.992196293,
    "longitude": -1.820108533,
    "hasWebsite": true,
    "hasActiveWebsite": true,
    "hasSocialMedia": false,
    "score": 20,
    "webVisibilityScore": 20,
    "status": "nouveau"
  },
  {
    "name": "CENTRALE DES ARTISANS COIFFEURS C.A.C.",
    "sector": "artisans",
    "address": "ZAC LA FONTAINE DES SAINTS RUE ANDRE MAGINOT 57300 TREMERY",
    "city": "57677",
    "phone": null,
    "email": null,
    "website": "https://www.groupe-cac.com/fr/",
    "latitude": 49.243952189,
    "longitude": 6.2366045741,
    "hasWebsite": true,
    "hasActiveWebsite": true,
    "hasSocialMedia": false,
    "score": 20,
    "webVisibilityScore": 20,
    "status": "nouveau"
  },
  {
    "name": "ARTISANS REUNIS BOIS ATLANTIQUE (ARBA)",
    "sector": "artisans",
    "address": "ZI DE LA GARE LA GIRONNIERE 44980 SAINTE-LUCE-SUR-LOIRE",
    "city": "44172",
    "phone": null,
    "email": null,
    "website": "https://www.arba.coop/",
    "latitude": 47.251181616,
    "longitude": -1.462892897,
    "hasWebsite": true,
    "hasActiveWebsite": true,
    "hasSocialMedia": false,
    "score": 20,
    "webVisibilityScore": 20,
    "status": "nouveau"
  },
  {
    "name": "LES ARTISANS DU GOUT",
    "sector": "restaurants",
    "address": "ZAC DE LA PRINCETIERE 11 RUE DES FORGERONS 44730 SAINT-MICHEL-CHEF-CHEF",
    "city": "44182",
    "phone": null,
    "email": null,
    "website": "https://www.artisanat.fr/nous-connaitre/vous-accompagner/cite-gout-saveurs",
    "latitude": 47.169855614,
    "longitude": -2.14514463,
    "hasWebsite": true,
    "hasActiveWebsite": true,
    "hasSocialMedia": false,
    "score": 20,
    "webVisibilityScore": 20,
    "status": "nouveau"
  },
  {
    "name": "ARTISANS DU PAYSAGE",
    "sector": "artisans",
    "address": "37 ALLEE DES EVENAS 44600 SAINT-NAZAIRE",
    "city": "44184",
    "phone": null,
    "email": null,
    "website": "https://www.ar-paysage.com/",
    "latitude": 47.247991889,
    "longitude": -2.265911369,
    "hasWebsite": true,
    "hasActiveWebsite": true,
    "hasSocialMedia": false,
    "score": 20,
    "webVisibilityScore": 20,
    "status": "nouveau"
  },
  {
    "name": "COIFFEUR EL SALAM",
    "sector": "artisans",
    "address": "C-CIAL DE LA BOISSIERE 1 RUE PAUL CLAUDEL 44300 NANTES",
    "city": "44109",
    "phone": null,
    "email": null,
    "website": "https://www.infobel.com/fr/france/coiffeur_el_salam/nantes/FR104276425-0240406048/businessdetails.aspx",
    "latitude": 47.2522184024079,
    "longitude": -1.56714698810252,
    "hasWebsite": true,
    "hasActiveWebsite": true,
    "hasSocialMedia": false,
    "score": 20,
    "webVisibilityScore": 20,
    "status": "nouveau"
  },
  {
    "name": "LES COIFFEURS DE SAINT HERBLAIN",
    "sector": "artisans",
    "address": "CENTRE COMMERCIAL CARREFOUR 2 BOULEVARD CHARLES GAUTIER 44800 SAINT-HERBLAIN",
    "city": "44162",
    "phone": null,
    "email": null,
    "website": "https://www.planity.com/coiffeur/44800-saint-herblain",
    "latitude": 47.220460165,
    "longitude": -1.604069121,
    "hasWebsite": true,
    "hasActiveWebsite": true,
    "hasSocialMedia": false,
    "score": 20,
    "webVisibilityScore": 20,
    "status": "nouveau"
  },
  {
    "name": "LC FRANKLIN (LE COIFFEUR)",
    "sector": "artisans",
    "address": "1 RUE FRANKLIN 44000 NANTES",
    "city": "44109",
    "phone": null,
    "email": null,
    "website": "https://www.lecoiffeur-nantes.fr/",
    "latitude": 47.213838766575,
    "longitude": -1.56316000371051,
    "hasWebsite": true,
    "hasActiveWebsite": true,
    "hasSocialMedia": false,
    "score": 20,
    "webVisibilityScore": 20,
    "status": "nouveau"
  },
  {
    "name": "BERTHELOT CONSTRUCTIONS (BERTHELOT CONSTRUCTIONS - NIVO'CONCEPT)",
    "sector": "artisans",
    "address": "IMPASSE 2 LA BARRIERE NOIRE 44220 COUERON",
    "city": "44047",
    "phone": null,
    "email": null,
    "website": "https://www.groupe-berthelot.com/",
    "latitude": 47.24322556,
    "longitude": -1.66892717,
    "hasWebsite": true,
    "hasActiveWebsite": true,
    "hasSocialMedia": false,
    "score": 20,
    "webVisibilityScore": 20,
    "status": "nouveau"
  },
  {
    "name": "PAMPRES VALLETAIS BASKET",
    "sector": "sport/bien-être",
    "address": "SALLE DES SPORTS LES DORICES 44330 VALLET",
    "city": "44212",
    "phone": null,
    "email": null,
    "website": "https://www.vallet-basket.fr/",
    "latitude": 47.176641289,
    "longitude": -1.259504304,
    "hasWebsite": true,
    "hasActiveWebsite": true,
    "hasSocialMedia": false,
    "score": 20,
    "webVisibilityScore": 20,
    "status": "nouveau"
  },
  {
    "name": "FALLERON TOUVOIS BASKET CLUB",
    "sector": "sport/bien-être",
    "address": "SALLE DES SPORTS RTE DE FALLERON 44650 TOUVOIS",
    "city": "44206",
    "phone": null,
    "email": null,
    "website": "https://www.ftbc.fr/",
    "latitude": 46.905853598,
    "longitude": -1.728983783,
    "hasWebsite": true,
    "hasActiveWebsite": true,
    "hasSocialMedia": false,
    "score": 20,
    "webVisibilityScore": 20,
    "status": "nouveau"
  },
  {
    "name": "SEVRE ET MAINE BASKET",
    "sector": "sport/bien-être",
    "address": "SALLE DES SPORTS RUE DES ABBES COURTAIS 44690 MAISDON-SUR-SEVRE",
    "city": "44088",
    "phone": null,
    "email": null,
    "website": "https://competitions.ffbb.com/ligues/pdl/comites/0044/clubs/pdl0044038",
    "latitude": 47.097202735,
    "longitude": -1.382619192,
    "hasWebsite": true,
    "hasActiveWebsite": true,
    "hasSocialMedia": false,
    "score": 20,
    "webVisibilityScore": 20,
    "status": "nouveau"
  },
  {
    "name": "TORTILLA RESTAURANTS SAS",
    "sector": "restaurants",
    "address": "1 B AVENUE DE LA REPUBLIQUE 75011 PARIS",
    "city": "75111",
    "phone": null,
    "email": null,
    "website": "https://restaurants.fr.tortilla.co/en/nantes-atlantis/",
    "latitude": 48.8671143710394,
    "longitude": 2.36626246222555,
    "hasWebsite": true,
    "hasActiveWebsite": true,
    "hasSocialMedia": false,
    "score": 15,
    "webVisibilityScore": 15,
    "status": "nouveau"
  },
  {
    "name": "RESTAURANT DGFIP (ASSOCIATION)",
    "sector": "restaurants",
    "address": "AVENUE DE LA CITOYENNETE 44110 CHATEAUBRIANT",
    "city": "44036",
    "phone": null,
    "email": null,
    "website": "https://www.loire-atlantique.gouv.fr/Services-de-l-Etat/Direction-Regionale-des-Finances-Publiques-Pays-de-la-Loire-et-Loire-Atlantique-DRFIP",
    "latitude": 47.71268673,
    "longitude": -1.390538314,
    "hasWebsite": true,
    "hasActiveWebsite": true,
    "hasSocialMedia": false,
    "score": 15,
    "webVisibilityScore": 15,
    "status": "nouveau"
  },
  {
    "name": "HABESHA RESTAURANT",
    "sector": "restaurants",
    "address": "69 RUE PAUL BELLAMY 44000 NANTES",
    "city": "44109",
    "phone": null,
    "email": null,
    "website": "https://habeshastudio.com/restaurants/nantes/habesha-specialites-erythreennes-ethiopiennes-restaurant/",
    "latitude": 47.225383504621,
    "longitude": -1.55941400825593,
    "hasWebsite": true,
    "hasActiveWebsite": true,
    "hasSocialMedia": false,
    "score": 15,
    "webVisibilityScore": 15,
    "status": "nouveau"
  },
  {
    "name": "MIX'AGE RESTAURANT",
    "sector": "sport/bien-être",
    "address": "3 RUE PIERRE LEPINE 44600 SAINT-NAZAIRE",
    "city": "44184",
    "phone": null,
    "email": null,
    "website": "https://mixt.fr/",
    "latitude": 47.273853522,
    "longitude": -2.237127519,
    "hasWebsite": true,
    "hasActiveWebsite": true,
    "hasSocialMedia": false,
    "score": 15,
    "webVisibilityScore": 15,
    "status": "nouveau"
  },
  {
    "name": "BOULANGERIES BG (B B G)",
    "sector": "artisans",
    "address": "615 AVENUE DE LA CHAFFINE 13160 CHATEAURENARD",
    "city": "13027",
    "phone": null,
    "email": null,
    "website": "https://www.marieblachere.com/",
    "latitude": 43.8903640316375,
    "longitude": 4.82612901648503,
    "hasWebsite": true,
    "hasActiveWebsite": true,
    "hasSocialMedia": false,
    "score": 15,
    "webVisibilityScore": 15,
    "status": "nouveau"
  },
  {
    "name": "BOULANGERIE BELOIN",
    "sector": "artisans",
    "address": "14 RUE DE LA MAIRIE 44470 MAUVES-SUR-LOIRE",
    "city": "44094",
    "phone": null,
    "email": null,
    "website": "https://www.myboulange.fr/44/mauves-sur-loire/boulangerie-beloin-28856",
    "latitude": 47.29601089,
    "longitude": -1.393776332,
    "hasWebsite": true,
    "hasActiveWebsite": true,
    "hasSocialMedia": false,
    "score": 15,
    "webVisibilityScore": 15,
    "status": "nouveau"
  },
  {
    "name": "BOULANGERIE JAMET",
    "sector": "artisans",
    "address": "4 PLACE CHARLES GIDE 44220 COUERON",
    "city": "44047",
    "phone": null,
    "email": null,
    "website": "https://www.maisonjamet.fr/",
    "latitude": 47.210497394,
    "longitude": -1.729649104,
    "hasWebsite": true,
    "hasActiveWebsite": true,
    "hasSocialMedia": false,
    "score": 15,
    "webVisibilityScore": 15,
    "status": "nouveau"
  },
  {
    "name": "FLO BOULANGERIE",
    "sector": "artisans",
    "address": "215 ROUTE DE VANNES 44800 SAINT-HERBLAIN",
    "city": "44162",
    "phone": null,
    "email": null,
    "website": null,
    "latitude": 47.241441164,
    "longitude": -1.594441686,
    "hasWebsite": false,
    "hasActiveWebsite": false,
    "hasSocialMedia": false,
    "score": 45,
    "webVisibilityScore": 45,
    "status": "nouveau"
  },
  {
    "name": "ARTISAN PRO RENOVATION (APR)",
    "sector": "BTP",
    "address": "18 CHEMIN DU PETIT PORTEAU 37170 CHAMBRAY-LES-TOURS",
    "city": "37050",
    "phone": null,
    "email": null,
    "website": "https://apr-renovation.fr/",
    "latitude": 47.3285477547322,
    "longitude": 0.757796399163693,
    "hasWebsite": true,
    "hasActiveWebsite": true,
    "hasSocialMedia": false,
    "score": 15,
    "webVisibilityScore": 15,
    "status": "nouveau"
  },
  {
    "name": "ARTISAN COUVREUR JUDALET",
    "sector": "BTP",
    "address": "19 RUE ALBERT CAMUS 44800 ST-HERBLAIN",
    "city": "44162",
    "phone": null,
    "email": null,
    "website": "https://www.couverture-judalet.com/realisations/",
    "latitude": 47.205293321,
    "longitude": -1.661770092,
    "hasWebsite": true,
    "hasActiveWebsite": true,
    "hasSocialMedia": false,
    "score": 15,
    "webVisibilityScore": 15,
    "status": "nouveau"
  },
  {
    "name": "L'ARTISAN COIFFEUR",
    "sector": "artisans",
    "address": "ZONE ARTISANALE 1 LA MAISON BERTIN 44680 SAINT-HILAIRE-DE-CHALEONS",
    "city": "44164",
    "phone": null,
    "email": null,
    "website": "https://letableau-artisanscoiffeurs.com/",
    "latitude": 47.0744978665081,
    "longitude": -1.88929918396458,
    "hasWebsite": true,
    "hasActiveWebsite": true,
    "hasSocialMedia": false,
    "score": 15,
    "webVisibilityScore": 15,
    "status": "nouveau"
  },
  {
    "name": "S.A.R COIFFEUR",
    "sector": "artisans",
    "address": "35 RUE HENRI GAUTIER 44550 MONTOIR-DE-BRETAGNE",
    "city": "44103",
    "phone": null,
    "email": null,
    "website": "https://www.sarah-pavlovski.com/",
    "latitude": 47.3062260077593,
    "longitude": -2.18061265312105,
    "hasWebsite": true,
    "hasActiveWebsite": true,
    "hasSocialMedia": false,
    "score": 15,
    "webVisibilityScore": 15,
    "status": "nouveau"
  },
  {
    "name": "A TWO COIFFEUR",
    "sector": "artisans",
    "address": "1 RUE BONNE GARDE 44200 NANTES",
    "city": "44109",
    "phone": null,
    "email": null,
    "website": "https://www.unboncoiffeur.fr/a-two-coiffeur-nantes-44200-c72474",
    "latitude": 47.19635151,
    "longitude": -1.525079163,
    "hasWebsite": true,
    "hasActiveWebsite": true,
    "hasSocialMedia": false,
    "score": 15,
    "webVisibilityScore": 15,
    "status": "nouveau"
  },
  {
    "name": "MLLE C. COIFFEUR - BARBIER",
    "sector": "artisans",
    "address": "LA CROIX DANIEL 44530 SAINT-GILDAS-DES-BOIS",
    "city": "44161",
    "phone": null,
    "email": null,
    "website": "https://www.mllec-coiffure-barbier.fr/savoir-faire/barbier-saint-gildas-des-bois/6",
    "latitude": 47.5193148463672,
    "longitude": -2.04689040257713,
    "hasWebsite": true,
    "hasActiveWebsite": true,
    "hasSocialMedia": false,
    "score": 15,
    "webVisibilityScore": 15,
    "status": "nouveau"
  },
  {
    "name": "HAPPY CURL",
    "sector": "artisans",
    "address": "60 RUE SALVADOR ALLENDE 54510 TOMBLAINE",
    "city": "54526",
    "phone": null,
    "email": null,
    "website": "https://nantes.cataloxy.org/firms/www.laboutiqueducoiffeur.com.htm",
    "latitude": 48.682123258,
    "longitude": 6.2321863855,
    "hasWebsite": true,
    "hasActiveWebsite": true,
    "hasSocialMedia": false,
    "score": 15,
    "webVisibilityScore": 15,
    "status": "nouveau"
  },
  {
    "name": "LES 2 PLOMBIERS",
    "sector": "BTP",
    "address": "2 IMPASSE CASSIOPEE 44115 BASSE-GOULAINE",
    "city": "44009",
    "phone": null,
    "email": null,
    "website": "https://www.initiative-nantes.fr/entrepreneurs/les-2-plombiers.html",
    "latitude": 47.195949574,
    "longitude": -1.451513464,
    "hasWebsite": true,
    "hasActiveWebsite": true,
    "hasSocialMedia": false,
    "score": 15,
    "webVisibilityScore": 15,
    "status": "nouveau"
  },
  {
    "name": "LE PLOMBIER DU COIN",
    "sector": "BTP",
    "address": "LE HAUT CHEMIN 44210 PORNIC",
    "city": "44131",
    "phone": null,
    "email": null,
    "website": "https://lecoindesartisans.fr/service/plomberie-sanitaire/nantes",
    "latitude": 47.150437802,
    "longitude": -2.127331822,
    "hasWebsite": true,
    "hasActiveWebsite": true,
    "hasSocialMedia": false,
    "score": 15,
    "webVisibilityScore": 15,
    "status": "nouveau"
  },
  {
    "name": "ORCAB",
    "sector": "artisans",
    "address": "Z A LES GENETS 2 RUE GUSTAVE EIFFEL 85620 ROCHESERVIERE",
    "city": "85190",
    "phone": null,
    "email": null,
    "website": "https://www.orcab.coop/",
    "latitude": 46.947074004,
    "longitude": -1.491758969,
    "hasWebsite": true,
    "hasActiveWebsite": true,
    "hasSocialMedia": false,
    "score": 15,
    "webVisibilityScore": 15,
    "status": "nouveau"
  },
  {
    "name": "SOCOTEC CONSTRUCTION",
    "sector": "artisans",
    "address": "5 PLACE DES FRERES MONTGOLFIER 78280 GUYANCOURT",
    "city": "78297",
    "phone": null,
    "email": null,
    "website": "https://nos-agences.socotec.fr/fr/pays-de-la-loire/loire-atlantique/nantes",
    "latitude": 48.786654872548,
    "longitude": 2.05266450726145,
    "hasWebsite": true,
    "hasActiveWebsite": true,
    "hasSocialMedia": false,
    "score": 15,
    "webVisibilityScore": 15,
    "status": "nouveau"
  },
  {
    "name": "CONSTRUCTEL CONSTRUCTIONS TELECOMMUNICA.",
    "sector": "BTP",
    "address": "ZAD DE MORLON 1 RUE JEAN BAPTISTE COROT 26800 PORTES-LES-VALENCE",
    "city": "26252",
    "phone": null,
    "email": null,
    "website": "https://constructel.net/fr/home",
    "latitude": 44.874726115,
    "longitude": 4.866756511,
    "hasWebsite": true,
    "hasActiveWebsite": true,
    "hasSocialMedia": false,
    "score": 15,
    "webVisibilityScore": 15,
    "status": "nouveau"
  },
  {
    "name": "OPERATEUR DE COMPETENCES DE LA CONSTRUCTION",
    "sector": "artisans",
    "address": "32 RUE RENE BOULANGER 75010 PARIS",
    "city": "75110",
    "phone": null,
    "email": null,
    "website": "https://www.constructys.fr/",
    "latitude": 48.868673292,
    "longitude": 2.3614574483,
    "hasWebsite": true,
    "hasActiveWebsite": true,
    "hasSocialMedia": false,
    "score": 15,
    "webVisibilityScore": 15,
    "status": "nouveau"
  },
  {
    "name": "BOUYGUES CONSTRUCTION MATERIEL",
    "sector": "artisans",
    "address": "TOURVILLE LA RIVIERE 27 BOULEVARD GABRIEL PERI 76410 TOURVILLE-LA-RIVIERE",
    "city": "76705",
    "phone": null,
    "email": null,
    "website": "https://www.bouygues-construction.com/",
    "latitude": 49.318701962,
    "longitude": 1.076048037,
    "hasWebsite": true,
    "hasActiveWebsite": true,
    "hasSocialMedia": false,
    "score": 15,
    "webVisibilityScore": 15,
    "status": "nouveau"
  },
  {
    "name": "BADMINTON SPORT LOISIRS",
    "sector": "sport/bien-être",
    "address": "SALLE DES SPORTS 44160 SAINTE-ANNE-SUR-BRIVET",
    "city": "44152",
    "phone": null,
    "email": null,
    "website": "https://badnantes.fr/",
    "latitude": 47.45965955,
    "longitude": -2.008010304,
    "hasWebsite": true,
    "hasActiveWebsite": true,
    "hasSocialMedia": false,
    "score": 15,
    "webVisibilityScore": 15,
    "status": "nouveau"
  },
  {
    "name": "OFFICE INTERCOMMUNAL DES SPORTS DE LA PRESQU'ILE GUERANDAISE",
    "sector": "sport/bien-être",
    "address": "SALLE DES SPORTS DES SALINES PL DES SALINES 44500 LA BAULE-ESCOUBLAC",
    "city": "44055",
    "phone": null,
    "email": null,
    "website": "https://www.creditsafe.com/business-index/en-gb/company/office-intercommunal-des-sports-de-la-presquile-guerandaise-fr10049149",
    "latitude": 47.289777388,
    "longitude": -2.396580174,
    "hasWebsite": true,
    "hasActiveWebsite": true,
    "hasSocialMedia": false,
    "score": 15,
    "webVisibilityScore": 15,
    "status": "nouveau"
  },
  {
    "name": "ASSO SPORT ET CULTURE LA GILLES DE RETZ",
    "sector": "sport/bien-être",
    "address": "SERVICE CULTURE-VIE ASSOCIATIVE 14 RUE DE LA TAILLEE 44270 MACHECOUL-SAINT-MEME",
    "city": "44087",
    "phone": null,
    "email": null,
    "website": "https://www.lagillesderetz.com/",
    "latitude": 46.99420242,
    "longitude": -1.826027263,
    "hasWebsite": true,
    "hasActiveWebsite": true,
    "hasSocialMedia": false,
    "score": 15,
    "webVisibilityScore": 15,
    "status": "nouveau"
  },
  {
    "name": "UNION SPORTIVE DE SAINTE-REINE-DE-BRETAGNE DE HANDBALL",
    "sector": "sport/bien-être",
    "address": "SALLE DES SPORTS RUE DES SPORTS 44160 SAINTE-REINE-DE-BRETAGNE",
    "city": "44189",
    "phone": null,
    "email": null,
    "website": "https://www.sainte-reine-de-bretagne.fr/ussr-handball/",
    "latitude": 47.440212586,
    "longitude": -2.204302515,
    "hasWebsite": true,
    "hasActiveWebsite": true,
    "hasSocialMedia": false,
    "score": 15,
    "webVisibilityScore": 15,
    "status": "nouveau"
  },
  {
    "name": "TENNIS CLUB NICOLASIEN",
    "sector": "sport/bien-être",
    "address": "SALLE DES SPORTS RUE DU PARC DES SPORTS 44460 SAINT-NICOLAS-DE-REDON",
    "city": "44185",
    "phone": null,
    "email": null,
    "website": "https://tennisclubdenantes.fr/",
    "latitude": 47.643887638,
    "longitude": -2.065361113,
    "hasWebsite": true,
    "hasActiveWebsite": true,
    "hasSocialMedia": false,
    "score": 15,
    "webVisibilityScore": 15,
    "status": "nouveau"
  },
  {
    "name": "BADMINTON DE CASSON",
    "sector": "sport/bien-être",
    "address": "SALLE DES SPORTS RUE DES ARDILLAUX 44390 CASSON",
    "city": "44027",
    "phone": null,
    "email": null,
    "website": "http://badminton-de-casson.fr/",
    "latitude": 47.389891623,
    "longitude": -1.554810723,
    "hasWebsite": true,
    "hasActiveWebsite": true,
    "hasSocialMedia": false,
    "score": 15,
    "webVisibilityScore": 15,
    "status": "nouveau"
  },
  {
    "name": "TENNIS CLUB CASSONNAIS (T2C)",
    "sector": "sport/bien-être",
    "address": "SALLE DES SPORTS RUE DES ARDILLAUX 44390 CASSON",
    "city": "44027",
    "phone": null,
    "email": null,
    "website": "https://fr.mappy.com/poi/5f73c79b5e26a26ef846ee0b",
    "latitude": 47.389891623,
    "longitude": -1.554810723,
    "hasWebsite": true,
    "hasActiveWebsite": true,
    "hasSocialMedia": false,
    "score": 15,
    "webVisibilityScore": 15,
    "status": "nouveau"
  },
  {
    "name": "RESPIRE CASSON",
    "sector": "sport/bien-être",
    "address": "SALLE DE SPORT RUE DES ARDILLAUX 44390 CASSON",
    "city": "44027",
    "phone": null,
    "email": null,
    "website": "https://www.net1901.org/association/RESPIRE-CASSON,1834002.html",
    "latitude": 47.389958924,
    "longitude": -1.553947533,
    "hasWebsite": true,
    "hasActiveWebsite": true,
    "hasSocialMedia": false,
    "score": 15,
    "webVisibilityScore": 15,
    "status": "nouveau"
  },
  {
    "name": "TENNIS DE TABLE MAISDONNAIS",
    "sector": "sport/bien-être",
    "address": "SALLE DES SPORTS RUE DES ABBES COURTAIS 44690 MAISDON-SUR-SEVRE",
    "city": "44088",
    "phone": null,
    "email": null,
    "website": "https://nantestt.fr/",
    "latitude": 47.096303811,
    "longitude": -1.382546056,
    "hasWebsite": true,
    "hasActiveWebsite": true,
    "hasSocialMedia": false,
    "score": 15,
    "webVisibilityScore": 15,
    "status": "nouveau"
  },
  {
    "name": "JEAN JAURES ST NAZAIRE TENNIS DE TABLE",
    "sector": "sport/bien-être",
    "address": "SALLE DES SPORTS AVENUE LEO LAGRANGE 44600 SAINT-NAZAIRE",
    "city": "44184",
    "phone": null,
    "email": null,
    "website": "https://saintnazairett.sportsregions.fr/en-savoir-plus/le-club-12720",
    "latitude": 47.272193216,
    "longitude": -2.229100849,
    "hasWebsite": true,
    "hasActiveWebsite": true,
    "hasSocialMedia": false,
    "score": 15,
    "webVisibilityScore": 15,
    "status": "nouveau"
  },
  {
    "name": "PHUSANISA YANGDUMRONG (THAI MASSAGE BIEN-ETRE)",
    "sector": "artisans",
    "address": "22 RUE DU VIEUX FOUR 44640 SAINT-JEAN-DE-BOISEAU",
    "city": "44166",
    "phone": null,
    "email": null,
    "website": "https://bienetredethailande.com/",
    "latitude": 47.1892683939842,
    "longitude": -1.70450625527406,
    "hasWebsite": true,
    "hasActiveWebsite": true,
    "hasSocialMedia": false,
    "score": 15,
    "webVisibilityScore": 15,
    "status": "nouveau"
  },
  {
    "name": "ISABELLE BOSSE (MASSAGE BIEN ETRE ISABELLE)",
    "sector": "artisans",
    "address": "3915 ROUTE DE SAINT-MARS-DU-DESERT 44470 MAUVES-SUR-LOIRE",
    "city": "44094",
    "phone": null,
    "email": null,
    "website": "https://www.isabelle-massage-bien-etre.fr/",
    "latitude": 47.328273985,
    "longitude": -1.412190011,
    "hasWebsite": true,
    "hasActiveWebsite": true,
    "hasSocialMedia": false,
    "score": 15,
    "webVisibilityScore": 15,
    "status": "nouveau"
  },
  {
    "name": "VANESSA SANQUER (DOUCEUR INFINIE MASSAGES BIEN-ETRE)",
    "sector": "artisans",
    "address": "25 RUE DES ROCHETTES 44670 SAINT-JULIEN-DE-VOUVANTES",
    "city": "44170",
    "phone": null,
    "email": null,
    "website": "https://actu.fr/pays-de-la-loire/saint-julien-de-vouvantes_44170/loire-atlantique-vanessa-a-ouvert-son-cabinet-de-massages_63559498.html",
    "latitude": 47.6377662083204,
    "longitude": -1.2374924703574,
    "hasWebsite": true,
    "hasActiveWebsite": true,
    "hasSocialMedia": false,
    "score": 15,
    "webVisibilityScore": 15,
    "status": "nouveau"
  },
  {
    "name": "STEPHANIE BLANCHARD (PHELIPPON) (IN'STEM PAISIBLE MASSAGE BIEN-ETRE)",
    "sector": "artisans",
    "address": "9 LE BOIS FLAMBERGE 44680 SAINTE-PAZANNE",
    "city": "44186",
    "phone": null,
    "email": null,
    "website": "https://www.stephaniemassagebienetre.fr/appointments-3",
    "latitude": 47.069778684,
    "longitude": -1.816371066,
    "hasWebsite": true,
    "hasActiveWebsite": true,
    "hasSocialMedia": false,
    "score": 15,
    "webVisibilityScore": 15,
    "status": "nouveau"
  },
  {
    "name": "DIMITRI RAVON (LE REPOS DES CHAKRAS - MASSAGE BIEN-ETRE)",
    "sector": "artisans",
    "address": "60 RUE FRANCOIS IER 75008 PARIS",
    "city": "75108",
    "phone": null,
    "email": null,
    "website": "https://www.salons10.com/FR/Nantes/151648560344424/Le-repos-des-Chakras---Massages-bien-%C3%AAtre",
    "latitude": 48.8697607691764,
    "longitude": 2.30201730576251,
    "hasWebsite": true,
    "hasActiveWebsite": true,
    "hasSocialMedia": false,
    "score": 15,
    "webVisibilityScore": 15,
    "status": "nouveau"
  },
  {
    "name": "JENNAI BAKHA (MASSAGE BIEN-ETRE)",
    "sector": "artisans",
    "address": "3 RUE DE LA PIERRE TREMBLANTE 44640 CHEIX-EN-RETZ",
    "city": "44039",
    "phone": null,
    "email": null,
    "website": "https://fr.mappy.com/poi/64968a355194da55345bf745",
    "latitude": 47.181699545,
    "longitude": -1.817020199,
    "hasWebsite": true,
    "hasActiveWebsite": true,
    "hasSocialMedia": false,
    "score": 15,
    "webVisibilityScore": 15,
    "status": "nouveau"
  },
  {
    "name": "RESTAURANT LA BOUILLABAISSE",
    "sector": "artisans",
    "address": "CLOS DE LA GALENDE CHEMIN DE LA NANTAISE 44350 GUERANDE",
    "city": "44069",
    "phone": null,
    "email": null,
    "website": "https://labouillabaisse.menu-res.com/menu",
    "latitude": 47.313102807,
    "longitude": -2.418829943,
    "hasWebsite": true,
    "hasActiveWebsite": true,
    "hasSocialMedia": false,
    "score": 10,
    "webVisibilityScore": 10,
    "status": "nouveau"
  },
  {
    "name": "ABAGE ARTISANS REUNIS",
    "sector": "artisans",
    "address": "3 RUE DE L'HIPPODROME 44300 NANTES",
    "city": "44109",
    "phone": null,
    "email": null,
    "website": "https://abage-artisans-reunis.com/",
    "latitude": 47.246824951,
    "longitude": -1.568152847,
    "hasWebsite": true,
    "hasActiveWebsite": true,
    "hasSocialMedia": false,
    "score": 10,
    "webVisibilityScore": 10,
    "status": "nouveau"
  },
  {
    "name": "LE PLOMBIER DE VILLENEUVE (LE PLOMBIER DE VILLENEUVE)",
    "sector": "BTP",
    "address": "2 RUE DES ROSIERS 56130 SAINT-DOLAY",
    "city": "56212",
    "phone": null,
    "email": null,
    "website": "https://saint-nazaire.obteniruncontact.com/plumber/le-plombier-de-villeneuve/",
    "latitude": 47.543074257,
    "longitude": -2.159456116,
    "hasWebsite": true,
    "hasActiveWebsite": true,
    "hasSocialMedia": false,
    "score": 10,
    "webVisibilityScore": 10,
    "status": "nouveau"
  },
  {
    "name": "MON PLOMBIER ERIC CORMERAIS (MON PLOMBIER ERIC CORMERAIS)",
    "sector": "BTP",
    "address": "4 L ANGEBERT 44120 VERTOU",
    "city": "44215",
    "phone": null,
    "email": null,
    "website": "https://fr.mappy.com/poi/646b2b5705e7213ce93f1f0a",
    "latitude": 47.139731441,
    "longitude": -1.453466088,
    "hasWebsite": true,
    "hasActiveWebsite": true,
    "hasSocialMedia": false,
    "score": 10,
    "webVisibilityScore": 10,
    "status": "nouveau"
  },
  {
    "name": "GROUPEMENT COOPERATIF ARTISANS PLOMBIERS",
    "sector": "artisans",
    "address": "TECHNOPOLIS BAT A 11 BOULEVARD AMPERE 44470 CARQUEFOU",
    "city": "44026",
    "phone": null,
    "email": null,
    "website": "https://www.gcap44.com/a-propos",
    "latitude": 47.3034740099154,
    "longitude": -1.50343734568181,
    "hasWebsite": true,
    "hasActiveWebsite": true,
    "hasSocialMedia": false,
    "score": 10,
    "webVisibilityScore": 10,
    "status": "nouveau"
  },
  {
    "name": "SARL AUBINEAU PLOMBIER CHAUFFAGISTE (SARL AUBINEAU PLOMBIER CHAUFFAGISTE)",
    "sector": "BTP",
    "address": "18 RUE DE LA CONARDIERE 44300 NANTES",
    "city": "44109",
    "phone": null,
    "email": null,
    "website": null,
    "latitude": 47.274684001,
    "longitude": -1.516807903,
    "hasWebsite": false,
    "hasActiveWebsite": false,
    "hasSocialMedia": false,
    "score": 40,
    "webVisibilityScore": 40,
    "status": "nouveau"
  },
  {
    "name": "CIMEO CONSTRUCTION",
    "sector": "BTP",
    "address": "PARC D ACTIVITES DES QUATRE ROUTES LD LA LANDE 22270 JUGON-LES-LACS",
    "city": "22084",
    "phone": null,
    "email": null,
    "website": "https://www.cimeoconstruction.fr/",
    "latitude": 48.41033107,
    "longitude": -2.351283759,
    "hasWebsite": true,
    "hasActiveWebsite": true,
    "hasSocialMedia": false,
    "score": 10,
    "webVisibilityScore": 10,
    "status": "nouveau"
  },
  {
    "name": "COMMUNE DE TREILLIERES",
    "sector": "artisans",
    "address": "57 RUE DE LA MAIRIE 44119 TREILLIERES",
    "city": "44209",
    "phone": null,
    "email": null,
    "website": "https://www.treillieres.fr/",
    "latitude": 47.3295508165199,
    "longitude": -1.62096612943317,
    "hasWebsite": true,
    "hasActiveWebsite": true,
    "hasSocialMedia": false,
    "score": 10,
    "webVisibilityScore": 10,
    "status": "nouveau"
  },
  {
    "name": "VELO SPORT VALLETAIS",
    "sector": "artisans",
    "address": "72 LES CHABOISSIERES 44330 VALLET",
    "city": "44212",
    "phone": null,
    "email": null,
    "website": "https://velosportvalletais.fr/",
    "latitude": 47.172781043,
    "longitude": -1.222796997,
    "hasWebsite": true,
    "hasActiveWebsite": true,
    "hasSocialMedia": false,
    "score": 10,
    "webVisibilityScore": 10,
    "status": "nouveau"
  },
  {
    "name": "RESTAURANT MARCEL",
    "sector": "artisans",
    "address": "10 BOULEVARD JEAN JOSEPH DE CACQUERAY 44500 LA BAULE-ESCOUBLAC",
    "city": "44055",
    "phone": null,
    "email": null,
    "website": "https://chez-marcel-3-rue-bougainville.menustic.com/",
    "latitude": 47.2885539453176,
    "longitude": -2.36311060639968,
    "hasWebsite": true,
    "hasActiveWebsite": true,
    "hasSocialMedia": false,
    "score": 10,
    "webVisibilityScore": 10,
    "status": "nouveau"
  },
  {
    "name": "DJERBA RESTAURANT",
    "sector": "artisans",
    "address": "8 RUE JACQUES CARTIER 44800 SAINT-HERBLAIN",
    "city": "44162",
    "phone": null,
    "email": null,
    "website": "https://www.eat-list.fr/nantes-44000/kebab-28/djerba-kebab-188692",
    "latitude": 47.2236144984361,
    "longitude": -1.63498973962171,
    "hasWebsite": true,
    "hasActiveWebsite": true,
    "hasSocialMedia": false,
    "score": 10,
    "webVisibilityScore": 10,
    "status": "nouveau"
  },
  {
    "name": "RESTAURANT VERNET",
    "sector": "artisans",
    "address": "46 B RUE DES HAUTS PAVES 44000 NANTES",
    "city": "44109",
    "phone": null,
    "email": null,
    "website": "https://www.maisonvernet.com/restaurant/",
    "latitude": 47.2249451129171,
    "longitude": -1.5655274626872,
    "hasWebsite": true,
    "hasActiveWebsite": true,
    "hasSocialMedia": false,
    "score": 10,
    "webVisibilityScore": 10,
    "status": "nouveau"
  },
  {
    "name": "RESTAURANT DIMFONG",
    "sector": "artisans",
    "address": "24 AVENUE DE VILLANDRY 44800 SAINT-HERBLAIN",
    "city": "44162",
    "phone": null,
    "email": null,
    "website": "https://unilocal.fr/france/nantes/restaurant-dimfong",
    "latitude": 47.239368647,
    "longitude": -1.599788004,
    "hasWebsite": true,
    "hasActiveWebsite": true,
    "hasSocialMedia": false,
    "score": 10,
    "webVisibilityScore": 10,
    "status": "nouveau"
  },
  {
    "name": "F.C.A. RESTAURANT",
    "sector": "artisans",
    "address": "6 RUE CLEMENT GUILBAUD 44330 MOUZILLON",
    "city": "44108",
    "phone": null,
    "email": null,
    "website": "https://www.fcnantes.com/?ref=bbbsite",
    "latitude": 47.140539204,
    "longitude": -1.281294375,
    "hasWebsite": true,
    "hasActiveWebsite": true,
    "hasSocialMedia": false,
    "score": 10,
    "webVisibilityScore": 10,
    "status": "nouveau"
  },
  {
    "name": "RESTAURANT DE LA REINE",
    "sector": "artisans",
    "address": "25 RUE DE KERGONAN 44350 GUERANDE",
    "city": "44069",
    "phone": null,
    "email": null,
    "website": "http://www.la-reine-margot.com/?lang=fr",
    "latitude": 47.3556164508633,
    "longitude": -2.34306608576636,
    "hasWebsite": true,
    "hasActiveWebsite": true,
    "hasSocialMedia": false,
    "score": 10,
    "webVisibilityScore": 10,
    "status": "nouveau"
  },
  {
    "name": "BOULANGERIE EMERIAU",
    "sector": "artisans",
    "address": "9 RUE HELENE BOUCHER 44115 HAUTE-GOULAINE",
    "city": "44071",
    "phone": null,
    "email": null,
    "website": "https://www.dnb.com/business-directory/company-profiles.boulangerie_emeriau.a40dc23f104d1c6c52a1813b6f2cad7c.html",
    "latitude": 47.1865491750617,
    "longitude": -1.44260224964995,
    "hasWebsite": true,
    "hasActiveWebsite": true,
    "hasSocialMedia": false,
    "score": 10,
    "webVisibilityScore": 10,
    "status": "nouveau"
  },
  {
    "name": "BOULANGERIE PAPILLON CF",
    "sector": "artisans",
    "address": "23 IMPASSE DU TONNELIER 44521 OUDON",
    "city": "44115",
    "phone": null,
    "email": null,
    "website": "https://www.papillon-officiel.com/%E2%80%8B",
    "latitude": 47.3554250069222,
    "longitude": -1.30386998674254,
    "hasWebsite": true,
    "hasActiveWebsite": true,
    "hasSocialMedia": false,
    "score": 10,
    "webVisibilityScore": 10,
    "status": "nouveau"
  },
  {
    "name": "BOULANGERIE DAVIS",
    "sector": "artisans",
    "address": "7 RUE DU BOUFFAY 44160 PONTCHATEAU",
    "city": "44129",
    "phone": null,
    "email": null,
    "website": "https://www.feuillette.fr/",
    "latitude": 47.4368207963922,
    "longitude": -2.09024153634268,
    "hasWebsite": true,
    "hasActiveWebsite": true,
    "hasSocialMedia": false,
    "score": 10,
    "webVisibilityScore": 10,
    "status": "nouveau"
  },
  {
    "name": "LES ARTISANS DU LARGE",
    "sector": "artisans",
    "address": "2 IMPASSE DE LA SALINE VERTE 44350 GUERANDE",
    "city": "44069",
    "phone": null,
    "email": null,
    "website": "https://www.lesartisansdularge.fr/",
    "latitude": 47.3205832163594,
    "longitude": -2.45385770520641,
    "hasWebsite": true,
    "hasActiveWebsite": true,
    "hasSocialMedia": false,
    "score": 10,
    "webVisibilityScore": 10,
    "status": "nouveau"
  },
  {
    "name": "ARTISAN THIBAULT (ARTISAN THIBAULT)",
    "sector": "BTP",
    "address": "1 RUE DU GUESCLIN 44000 NANTES",
    "city": "44109",
    "phone": null,
    "email": null,
    "website": "https://ets-thibault.fr/",
    "latitude": 47.2129576231402,
    "longitude": -1.55587328201239,
    "hasWebsite": true,
    "hasActiveWebsite": true,
    "hasSocialMedia": false,
    "score": 10,
    "webVisibilityScore": 10,
    "status": "nouveau"
  },
  {
    "name": "LA PLATEFORME DES ARTISANS (ETS DEHAINE, DEHAINE PERE ET FILS)",
    "sector": "artisans",
    "address": "49 AVENUE DU GENERAL DE GAULLE 44500 LA BAULE-ESCOUBLAC",
    "city": "44055",
    "phone": null,
    "email": null,
    "website": "https://data.inpi.fr/entreprises/510582596",
    "latitude": 47.283542043,
    "longitude": -2.392369004,
    "hasWebsite": true,
    "hasActiveWebsite": true,
    "hasSocialMedia": false,
    "score": 10,
    "webVisibilityScore": 10,
    "status": "nouveau"
  },
  {
    "name": "AARNAUD ARTISANS (ARNAUD ARTISANS)",
    "sector": "BTP",
    "address": "8 RUE DE LA BASTILLE 44000 NANTES",
    "city": "44109",
    "phone": null,
    "email": null,
    "website": "https://www.monartisan.info/pro-arnaud-artisans-54008924000019",
    "latitude": 47.2185434679545,
    "longitude": -1.5646799096638,
    "hasWebsite": true,
    "hasActiveWebsite": true,
    "hasSocialMedia": false,
    "score": 10,
    "webVisibilityScore": 10,
    "status": "nouveau"
  },
  {
    "name": "L'ARTISAN COIFFEUR",
    "sector": "artisans",
    "address": "27 B RUE DE LA FORET 44810 HERIC",
    "city": "44073",
    "phone": null,
    "email": null,
    "website": "https://letableau-artisanscoiffeurs.com/",
    "latitude": 47.418534023,
    "longitude": -1.655786421,
    "hasWebsite": true,
    "hasActiveWebsite": true,
    "hasSocialMedia": false,
    "score": 10,
    "webVisibilityScore": 10,
    "status": "nouveau"
  },
  {
    "name": "L'ARTISAN",
    "sector": "artisans",
    "address": "40 RUE DE GIGANT 44100 NANTES",
    "city": "44109",
    "phone": null,
    "email": null,
    "website": "https://www.artisanparfumeur.com/us/en_US/",
    "latitude": 47.2145851384717,
    "longitude": -1.57298474782394,
    "hasWebsite": true,
    "hasActiveWebsite": true,
    "hasSocialMedia": false,
    "score": 10,
    "webVisibilityScore": 10,
    "status": "nouveau"
  },
  {
    "name": "LES ARTISANES DU SOURIRE",
    "sector": "artisans",
    "address": "3 LA MAISON NEUVE 44640 ROUANS",
    "city": "44145",
    "phone": null,
    "email": null,
    "website": "https://www.helloasso.com/associations/les-artisanes-du-sourire",
    "latitude": 47.1721949240827,
    "longitude": -1.83350033300748,
    "hasWebsite": true,
    "hasActiveWebsite": true,
    "hasSocialMedia": false,
    "score": 10,
    "webVisibilityScore": 10,
    "status": "nouveau"
  },
  {
    "name": "L'ARTISAN DECORATEUR",
    "sector": "artisans",
    "address": "2 RUE YVES BODIGUEL 44000 NANTES",
    "city": "44109",
    "phone": null,
    "email": null,
    "website": "https://www.artisandecorateur.fr/photos/stores/",
    "latitude": 47.2219517389905,
    "longitude": -1.55956484252278,
    "hasWebsite": true,
    "hasActiveWebsite": true,
    "hasSocialMedia": false,
    "score": 10,
    "webVisibilityScore": 10,
    "status": "nouveau"
  },
  {
    "name": "ARTISANS DU DESERT",
    "sector": "artisans",
    "address": "5 IMPASSE DE CREVE-COEUR 44760 LA BERNERIE-EN-RETZ",
    "city": "44012",
    "phone": null,
    "email": null,
    "website": "https://boutique-artisans-du-monde.com/",
    "latitude": 47.090797746,
    "longitude": -2.050652697,
    "hasWebsite": true,
    "hasActiveWebsite": true,
    "hasSocialMedia": false,
    "score": 10,
    "webVisibilityScore": 10,
    "status": "nouveau"
  },
  {
    "name": "LES ARTISANS DU CHANGEMENT",
    "sector": "artisans",
    "address": "SOLILAB 8 RUE DE SAINT DOMINGUE 44200 NANTES",
    "city": "44109",
    "phone": null,
    "email": null,
    "website": "https://lesartisansduchangement.com/",
    "latitude": 47.2010562873957,
    "longitude": -1.57080030546861,
    "hasWebsite": true,
    "hasActiveWebsite": true,
    "hasSocialMedia": false,
    "score": 10,
    "webVisibilityScore": 10,
    "status": "nouveau"
  },
  {
    "name": "SYND MAITRE ET ARTISA COIFFEUR",
    "sector": "artisans",
    "address": "1 AVENUE DU GENERAL DE GAULLE 44600 SAINT-NAZAIRE",
    "city": "44184",
    "phone": null,
    "email": null,
    "website": "https://saint-nazaire-lo.cataloxy.org/firms/synd-maitre-et-artisa-coiffeur-syndicat-patronal.1487746_c.htm",
    "latitude": 47.273395775,
    "longitude": -2.207782226,
    "hasWebsite": true,
    "hasActiveWebsite": true,
    "hasSocialMedia": false,
    "score": 10,
    "webVisibilityScore": 10,
    "status": "nouveau"
  },
  {
    "name": "COOPERATIVE ARTISANALE COIFFEURS OUEST",
    "sector": "artisans",
    "address": "14 RUE FRANCOIS EVELLIN 44000 NANTES",
    "city": "44109",
    "phone": null,
    "email": null,
    "website": "https://grossiste.e-pro.fr/loire-atlantique/coop-artisanale-des-coiffeurs-de-l-ouest-ste-cooperative-a-person_f1112524",
    "latitude": 47.21955187,
    "longitude": -1.538722167,
    "hasWebsite": true,
    "hasActiveWebsite": true,
    "hasSocialMedia": false,
    "score": 10,
    "webVisibilityScore": 10,
    "status": "nouveau"
  },
  {
    "name": "CLC",
    "sector": "artisans",
    "address": "8 ROUTE DE L’OUCHE BERTAUD 44450 SAINT-JULIEN-DE-CONCELLES",
    "city": "44169",
    "phone": null,
    "email": null,
    "website": "https://www.clcfrance.com/",
    "latitude": 47.26645477,
    "longitude": -1.405985318,
    "hasWebsite": true,
    "hasActiveWebsite": true,
    "hasSocialMedia": false,
    "score": 10,
    "webVisibilityScore": 10,
    "status": "nouveau"
  },
  {
    "name": "LE PLOMBIER BREVINOIS",
    "sector": "BTP",
    "address": "14 ALLEE DE L'AMIRAL LERAY 44250 SAINT-BREVIN-LES-PINS",
    "city": "44154",
    "phone": null,
    "email": null,
    "website": "https://electricien-avis.com/le-plombier-brevinois-788120.html",
    "latitude": 47.2604455486396,
    "longitude": -2.16861496739589,
    "hasWebsite": true,
    "hasActiveWebsite": true,
    "hasSocialMedia": false,
    "score": 10,
    "webVisibilityScore": 10,
    "status": "nouveau"
  },
  {
    "name": "LE PLOMBIER NANTAIS",
    "sector": "BTP",
    "address": "2 RUE DU GRANIT 44119 TREILLIERES",
    "city": "44209",
    "phone": null,
    "email": null,
    "website": "https://www.zeplombier.fr/",
    "latitude": 47.30578228,
    "longitude": -1.618945994,
    "hasWebsite": true,
    "hasActiveWebsite": true,
    "hasSocialMedia": false,
    "score": 10,
    "webVisibilityScore": 10,
    "status": "nouveau"
  },
  {
    "name": "LE PLOMBIER LANDAIS",
    "sector": "BTP",
    "address": "30 AVENUE MICHEL LECOUR GRANDMAISON 44800 SAINT-HERBLAIN",
    "city": "44162",
    "phone": null,
    "email": null,
    "website": "https://fr.mappy.com/poi/56d5e70f9191b07584a2a87b",
    "latitude": 47.2173712783816,
    "longitude": -1.6063165219597,
    "hasWebsite": true,
    "hasActiveWebsite": true,
    "hasSocialMedia": false,
    "score": 10,
    "webVisibilityScore": 10,
    "status": "nouveau"
  },
  {
    "name": "PLOMBIER DMS",
    "sector": "BTP",
    "address": "25 RUE DE LA TRAVIATA 44340 BOUGUENAIS",
    "city": "44020",
    "phone": null,
    "email": null,
    "website": "https://www.bestplombier.fr/44/nantes/plombier-dms-208821",
    "latitude": 47.173577959,
    "longitude": -1.573876828,
    "hasWebsite": true,
    "hasActiveWebsite": true,
    "hasSocialMedia": false,
    "score": 10,
    "webVisibilityScore": 10,
    "status": "nouveau"
  },
  {
    "name": "ABC DU PLOMBIER (ABC DU PLOMBIER)",
    "sector": "BTP",
    "address": "24 RUE ARISTIDE NOGUE 44400 REZE",
    "city": "44143",
    "phone": null,
    "email": null,
    "website": "https://abcduplombier44.fr/",
    "latitude": 47.18015866,
    "longitude": -1.538447811,
    "hasWebsite": true,
    "hasActiveWebsite": true,
    "hasSocialMedia": false,
    "score": 10,
    "webVisibilityScore": 10,
    "status": "nouveau"
  },
  {
    "name": "C'EST L'PLOMBIER !",
    "sector": "BTP",
    "address": "3 LA GRANDE MORINIERE 44330 LA REGRIPPIERE",
    "city": "44140",
    "phone": null,
    "email": null,
    "website": "https://www.cylex-locale.fr/entreprises/c%27est-le-plombier-14666232.html",
    "latitude": 47.1726506684629,
    "longitude": -1.17614740152805,
    "hasWebsite": true,
    "hasActiveWebsite": true,
    "hasSocialMedia": false,
    "score": 10,
    "webVisibilityScore": 10,
    "status": "nouveau"
  },
  {
    "name": "ALEXANDRE PLOMBIER CHAUFFAGISTE (ERDRE ET LOIRE CONFORT) (APC)",
    "sector": "BTP",
    "address": "6 LA HAUTE BERANGERIE 44850 SAINT-MARS-DU-DESERT",
    "city": "44179",
    "phone": null,
    "email": null,
    "website": "https://www.chauffage-confort-chapelain.fr/",
    "latitude": 47.366520157,
    "longitude": -1.429313383,
    "hasWebsite": true,
    "hasActiveWebsite": true,
    "hasSocialMedia": false,
    "score": 10,
    "webVisibilityScore": 10,
    "status": "nouveau"
  },
  {
    "name": "ARTISAN PLOMBIER ET CHAUFFAGISTE (ARPEC) (ARPEC)",
    "sector": "BTP",
    "address": "14 RUE DE SAINT-CLOUD 44700 ORVAULT",
    "city": "44114",
    "phone": null,
    "email": null,
    "website": null,
    "latitude": 47.255440313,
    "longitude": -1.599810994,
    "hasWebsite": false,
    "hasActiveWebsite": false,
    "hasSocialMedia": false,
    "score": 35,
    "webVisibilityScore": 35,
    "status": "nouveau"
  },
  {
    "name": "A L'EAU PLOMBIER (A L'EAU PLOMBIER)",
    "sector": "BTP",
    "address": "13 AVENUE DES MARRONNIERS 44120 VERTOU",
    "city": "44215",
    "phone": null,
    "email": null,
    "website": "https://plombiers.com/a-l-eau-plombier-nantes.html",
    "latitude": 47.18416867,
    "longitude": -1.490550244,
    "hasWebsite": true,
    "hasActiveWebsite": true,
    "hasSocialMedia": false,
    "score": 10,
    "webVisibilityScore": 10,
    "status": "nouveau"
  },
  {
    "name": "M. PLOMBIER SUCE SUR ERDRE (M. PLOMBIER) (MPSSE)",
    "sector": "BTP",
    "address": "LES JARDINS DE PROCE EST 70 IMPASSE DES FAUVETTES 44240 SUCE-SUR-ERDRE",
    "city": "44201",
    "phone": null,
    "email": null,
    "website": "https://mplombier.fr/",
    "latitude": 47.347972034,
    "longitude": -1.536793002,
    "hasWebsite": true,
    "hasActiveWebsite": true,
    "hasSocialMedia": false,
    "score": 10,
    "webVisibilityScore": 10,
    "status": "nouveau"
  },
  {
    "name": "DOM ELECTRICIEN PLOMBIER",
    "sector": "BTP",
    "address": "41-43 QUAI DE MALAKOFF 44000 NANTES",
    "city": "44109",
    "phone": null,
    "email": null,
    "website": "https://domelectricite.fr/",
    "latitude": 47.2145275240628,
    "longitude": -1.54093457370873,
    "hasWebsite": true,
    "hasActiveWebsite": true,
    "hasSocialMedia": false,
    "score": 10,
    "webVisibilityScore": 10,
    "status": "nouveau"
  },
  {
    "name": "DL PLOMBIER CHAUFFAGISTE",
    "sector": "BTP",
    "address": "9 RUE DE L'ENCLOS 44700 ORVAULT",
    "city": "44114",
    "phone": null,
    "email": null,
    "website": "https://dlplombiernantes.fr/",
    "latitude": 47.25354303050698,
    "longitude": -1.6060140611769633,
    "hasWebsite": true,
    "hasActiveWebsite": true,
    "hasSocialMedia": false,
    "score": 10,
    "webVisibilityScore": 10,
    "status": "nouveau"
  },
  {
    "name": "O PLOMBIER",
    "sector": "BTP",
    "address": "RTE DE NANTES 44140 LA PLANCHE",
    "city": "44127",
    "phone": null,
    "email": null,
    "website": "https://www.ou-plombier.fr/loire-atlantique/nantes/",
    "latitude": 47.020926743,
    "longitude": -1.443670262,
    "hasWebsite": true,
    "hasActiveWebsite": true,
    "hasSocialMedia": false,
    "score": 10,
    "webVisibilityScore": 10,
    "status": "nouveau"
  },
  {
    "name": "PLOMBIERS ET CARRELEURS ASSOCIES",
    "sector": "artisans",
    "address": "46 BLOS DE LA RIVAUDIERE 15 RUE DE LA JOHARDIERE 44800 SAINT-HERBLAIN",
    "city": "44162",
    "phone": null,
    "email": null,
    "website": "https://entreprises.lagazettefrance.fr/entreprise/plombiers-et-carreleurs-associes-481536001",
    "latitude": 47.227064402,
    "longitude": -1.650270045,
    "hasWebsite": true,
    "hasActiveWebsite": true,
    "hasSocialMedia": false,
    "score": 10,
    "webVisibilityScore": 10,
    "status": "nouveau"
  },
  {
    "name": "ELECTRICIENS SANS FRONTIERES L'ENERGIE DU DEVELOPPEMENT",
    "sector": "artisans",
    "address": "11 RUE DE L' AMIRAL HAMELIN 75016 PARIS",
    "city": "75116",
    "phone": null,
    "email": null,
    "website": "https://www.electriciens-sans-frontieres.org/",
    "latitude": 48.866694983,
    "longitude": 2.29223105,
    "hasWebsite": true,
    "hasActiveWebsite": true,
    "hasSocialMedia": false,
    "score": 10,
    "webVisibilityScore": 10,
    "status": "nouveau"
  },
  {
    "name": "L'ATELIER DE L ELECTRICIEN",
    "sector": "BTP",
    "address": "LA BAZILLERE 44430 LE LANDREAU",
    "city": "44079",
    "phone": null,
    "email": null,
    "website": "https://www.atelierelec.com/",
    "latitude": 47.195608837,
    "longitude": -1.307303203,
    "hasWebsite": true,
    "hasActiveWebsite": true,
    "hasSocialMedia": false,
    "score": 10,
    "webVisibilityScore": 10,
    "status": "nouveau"
  },
  {
    "name": "L'ARTISAN ELECTRICIEN",
    "sector": "BTP",
    "address": "85 AVENUE CLAUDE ROUSSEAU 44250 SAINT-BREVIN-LES-PINS",
    "city": "44154",
    "phone": null,
    "email": null,
    "website": "https://www.art-elec.com/",
    "latitude": 47.239548436,
    "longitude": -2.168365334,
    "hasWebsite": true,
    "hasActiveWebsite": true,
    "hasSocialMedia": false,
    "score": 10,
    "webVisibilityScore": 10,
    "status": "nouveau"
  },
  {
    "name": "MARIEN L'ELECTRICIEN",
    "sector": "BTP",
    "address": "38 RUE JOLIOT-CURIE 44720 SAINT-JOACHIM",
    "city": "44168",
    "phone": null,
    "email": null,
    "website": "https://www.dnb.com/business-directory/company-profiles.marien_lelectricien.ca88a5718f3f0dd84a02009ff4189f8b.html",
    "latitude": 47.381753905,
    "longitude": -2.199545049,
    "hasWebsite": true,
    "hasActiveWebsite": true,
    "hasSocialMedia": false,
    "score": 10,
    "webVisibilityScore": 10,
    "status": "nouveau"
  },
  {
    "name": "ARTISAN ELECTRICIEN BREVINOIS (AEB ARTISAN ELECTRICIEN BREVINOIS)",
    "sector": "BTP",
    "address": "11 AVENUE DE LA PRINAIS 44250 SAINT-BREVIN-LES-PINS",
    "city": "44154",
    "phone": null,
    "email": null,
    "website": "https://www.nosartisansontdutalent.fr/entreprise/aeb-artisan-electricien-brevinois-sarl/",
    "latitude": 47.26234912,
    "longitude": -2.153024669,
    "hasWebsite": true,
    "hasActiveWebsite": true,
    "hasSocialMedia": false,
    "score": 10,
    "webVisibilityScore": 10,
    "status": "nouveau"
  },
  {
    "name": "ARTISAN ELECTRICIEN DU BATIMENT 44 (A.B. 44) (A.B. 44)",
    "sector": "BTP",
    "address": "18 RUE DU CLOS GRILLE 44640 LE PELLERIN",
    "city": "44120",
    "phone": null,
    "email": null,
    "website": "https://www.ab44elec.fr/",
    "latitude": 47.199873672,
    "longitude": -1.754000002,
    "hasWebsite": true,
    "hasActiveWebsite": true,
    "hasSocialMedia": false,
    "score": 10,
    "webVisibilityScore": 10,
    "status": "nouveau"
  },
  {
    "name": "RENAUD CONSTRUCTION PLAQUISTE ELECTRICIEN (RCPE)",
    "sector": "BTP",
    "address": "7 LA PINAIS 7 LA PINAIS 44520 MOISDON-LA-RIVIERE",
    "city": "44099",
    "phone": null,
    "email": null,
    "website": "https://entreprises.lefigaro.fr/renaud-coiffard-placo-electricite-rcpe-44/entreprise-912486412",
    "latitude": 47.619104036,
    "longitude": -1.335354052,
    "hasWebsite": true,
    "hasActiveWebsite": true,
    "hasSocialMedia": false,
    "score": 10,
    "webVisibilityScore": 10,
    "status": "nouveau"
  },
  {
    "name": "SOCIETE NOUVELLE DES ETABLISSEMENTS JULES VERGER ET DELPORTE-LES ELECTRICIENS DE FRANCE V.D (VD)",
    "sector": "artisans",
    "address": "45-51 - FAUBOURG DE L ARCHE 45 RUE LOUIS BLANC 92400 COURBEVOIE",
    "city": "92026",
    "phone": null,
    "email": null,
    "website": "https://entreprises.lagazettefrance.fr/entreprise/societe-nouvelle-des-etablissements-jules-verger-et-delporte-les-electriciens-de-france-v.d-320048945",
    "latitude": 48.8919434067671,
    "longitude": 2.25170608825962,
    "hasWebsite": true,
    "hasActiveWebsite": true,
    "hasSocialMedia": false,
    "score": 10,
    "webVisibilityScore": 10,
    "status": "nouveau"
  },
  {
    "name": "ELECTRICIENS SANS FRONTIERE PAYS LOIRE (ASS)",
    "sector": "artisans",
    "address": "1 RUE MELLIER 44100 NANTES",
    "city": "44109",
    "phone": null,
    "email": null,
    "website": "https://www.electriciens-sans-frontieres.org/delegation/pays-de-la-loire/",
    "latitude": 47.2108446495172,
    "longitude": -1.57743089616463,
    "hasWebsite": true,
    "hasActiveWebsite": true,
    "hasSocialMedia": false,
    "score": 10,
    "webVisibilityScore": 10,
    "status": "nouveau"
  },
  {
    "name": "MANIL",
    "sector": "artisans",
    "address": "38 RUE JOLIOT-CURIE 44720 SAINT-JOACHIM",
    "city": "44168",
    "phone": null,
    "email": null,
    "website": "https://www.warehouse-nantes.fr/artist/manil",
    "latitude": 47.381753905,
    "longitude": -2.199545049,
    "hasWebsite": true,
    "hasActiveWebsite": true,
    "hasSocialMedia": false,
    "score": 10,
    "webVisibilityScore": 10,
    "status": "nouveau"
  },
  {
    "name": "ELNUR ISAYEV (ELECTRICIEN ELNUR ISAYEV)",
    "sector": "BTP",
    "address": "APPARTEMENT B203 77 RUE DE LA PERVERIE 44300 NANTES",
    "city": "44109",
    "phone": null,
    "email": null,
    "website": "https://elnurnanteselectricien.fr/qui-sommes-nous/",
    "latitude": 47.2400419445913,
    "longitude": -1.55977502124731,
    "hasWebsite": true,
    "hasActiveWebsite": true,
    "hasSocialMedia": false,
    "score": 10,
    "webVisibilityScore": 10,
    "status": "nouveau"
  },
  {
    "name": "FELIX BARRAUD DE LAGERIE (L'ELECTRICIEN DU COIN 44)",
    "sector": "BTP",
    "address": "7 B RUE DU PORT GARNIER 44000 NANTES",
    "city": "44109",
    "phone": null,
    "email": null,
    "website": "https://edc44.fr/",
    "latitude": 47.2293389646826,
    "longitude": -1.5494332864524,
    "hasWebsite": true,
    "hasActiveWebsite": true,
    "hasSocialMedia": false,
    "score": 10,
    "webVisibilityScore": 10,
    "status": "nouveau"
  },
  {
    "name": "NICOLAS YOUBI (NICOLAS YOUBI ELECTRICIEN)",
    "sector": "BTP",
    "address": "146 B RUE DU PLESSIS 44330 MOUZILLON",
    "city": "44108",
    "phone": null,
    "email": null,
    "website": "https://pro.infobel.fr/FR100977983-0240339295/nicolas_youbi_electricien-mouzillon.html",
    "latitude": 47.142303954,
    "longitude": -1.287389044,
    "hasWebsite": true,
    "hasActiveWebsite": true,
    "hasSocialMedia": false,
    "score": 10,
    "webVisibilityScore": 10,
    "status": "nouveau"
  },
  {
    "name": "MICKAEL AVRIL (LE PETIT ELECTRICIEN DU COIN)",
    "sector": "BTP",
    "address": "LE BOIS PEAN 44660 FERCE",
    "city": "44058",
    "phone": null,
    "email": null,
    "website": "https://edc44.fr/",
    "latitude": 47.79236099109785,
    "longitude": -1.4095419593366476,
    "hasWebsite": true,
    "hasActiveWebsite": true,
    "hasSocialMedia": false,
    "score": 10,
    "webVisibilityScore": 10,
    "status": "nouveau"
  },
  {
    "name": "LEBRETON INVESTISSEMENT",
    "sector": "artisans",
    "address": "43 B RUE ARISTIDE BRIAND 44600 SAINT-NAZAIRE",
    "city": "44184",
    "phone": null,
    "email": null,
    "website": "https://entreprises.lagazettefrance.fr/entreprise/lebreton-investissement-803012616",
    "latitude": 47.2779909795503,
    "longitude": -2.22053685065677,
    "hasWebsite": true,
    "hasActiveWebsite": true,
    "hasSocialMedia": false,
    "score": 10,
    "webVisibilityScore": 10,
    "status": "nouveau"
  },
  {
    "name": "CONSTRUCTION",
    "sector": "BTP",
    "address": "120 B RUE MAURICE SAMBRON 44160 PONTCHATEAU",
    "city": "44129",
    "phone": null,
    "email": null,
    "website": "https://metropole.nantes.fr/",
    "latitude": 47.445845899,
    "longitude": -2.090206243,
    "hasWebsite": true,
    "hasActiveWebsite": true,
    "hasSocialMedia": false,
    "score": 10,
    "webVisibilityScore": 10,
    "status": "nouveau"
  },
  {
    "name": "VINCI CONSTRUCTION FRANCE",
    "sector": "BTP",
    "address": "L ARCHIPEL 1973 BOULEVARD DE LA DEFENSE 92000 NANTERRE",
    "city": "92050",
    "phone": null,
    "email": null,
    "website": "https://vinci-construction.com/fr/",
    "latitude": 48.8971494011327,
    "longitude": 2.22653088089135,
    "hasWebsite": true,
    "hasActiveWebsite": true,
    "hasSocialMedia": false,
    "score": 10,
    "webVisibilityScore": 10,
    "status": "nouveau"
  },
  {
    "name": "DEMATHIEU BARD CONSTRUCTION",
    "sector": "BTP",
    "address": "17 RUE VENIZELOS 57950 MONTIGNY-LES-METZ",
    "city": "57480",
    "phone": null,
    "email": null,
    "website": "http://www.demathieu-bard.fr/",
    "latitude": 49.095650538,
    "longitude": 6.1431213572,
    "hasWebsite": true,
    "hasActiveWebsite": true,
    "hasSocialMedia": false,
    "score": 10,
    "webVisibilityScore": 10,
    "status": "nouveau"
  },
  {
    "name": "SA D'HLM  AIGUILLON CONSTRUCTION",
    "sector": "artisans",
    "address": "60 AVENUE DU CANADA 35200 RENNES",
    "city": "35238",
    "phone": null,
    "email": null,
    "website": "https://www.aiguillon-construction.fr/",
    "latitude": 48.0812796119514,
    "longitude": -1.67856101689343,
    "hasWebsite": true,
    "hasActiveWebsite": true,
    "hasSocialMedia": false,
    "score": 10,
    "webVisibilityScore": 10,
    "status": "nouveau"
  },
  {
    "name": "BOUYGUES CONSTRUCTION",
    "sector": "BTP",
    "address": "CHALLENGER 1 AVENUE EUGENE FREYSSINET 78280 GUYANCOURT",
    "city": "78297",
    "phone": null,
    "email": null,
    "website": "https://www.bouygues-construction.com/",
    "latitude": 48.784981902,
    "longitude": 2.0653983724,
    "hasWebsite": true,
    "hasActiveWebsite": true,
    "hasSocialMedia": false,
    "score": 10,
    "webVisibilityScore": 10,
    "status": "nouveau"
  },
  {
    "name": "DBL CONSTRUCTIONS",
    "sector": "artisans",
    "address": "ZAC DE L'EPI D'OR 22 RUE DE L'EPI D'OR 94800 VILLEJUIF",
    "city": "94076",
    "phone": null,
    "email": null,
    "website": "https://www.dblconstructions.fr/",
    "latitude": 48.785590798,
    "longitude": 2.3525423299,
    "hasWebsite": true,
    "hasActiveWebsite": true,
    "hasSocialMedia": false,
    "score": 10,
    "webVisibilityScore": 10,
    "status": "nouveau"
  },
  {
    "name": "NANTES BASKET SPORT",
    "sector": "artisans",
    "address": "SALLE SPORTIVE METROPOLITAINE 91 RUE DE LA TROCARDIERE 44400 REZE",
    "city": "44143",
    "phone": null,
    "email": null,
    "website": "https://www.nantes-basket.com/",
    "latitude": 47.180317924,
    "longitude": -1.571936913,
    "hasWebsite": true,
    "hasActiveWebsite": true,
    "hasSocialMedia": false,
    "score": 10,
    "webVisibilityScore": 10,
    "status": "nouveau"
  },
  {
    "name": "ASSOCIATION MUSICALE SEVRE ET MUSIQUE",
    "sector": "artisans",
    "address": "SALLE POLYVALENTE DE LOISIRS RUE DES SPORTS 44330 LE PALLET",
    "city": "44117",
    "phone": null,
    "email": null,
    "website": "https://sevreetmusique-lepallet.opentalent.fr/",
    "latitude": 47.14134026,
    "longitude": -1.335996568,
    "hasWebsite": true,
    "hasActiveWebsite": true,
    "hasSocialMedia": false,
    "score": 10,
    "webVisibilityScore": 10,
    "status": "nouveau"
  },
  {
    "name": "L ESPERANCE DE CAMPBON",
    "sector": "artisans",
    "address": "SALLE DE L ESPERANCE 48 AVENUE DES SPORTS 44750 CAMPBON",
    "city": "44025",
    "phone": null,
    "email": null,
    "website": "https://espcampbon-accueil.footeo.com/",
    "latitude": 47.4079414129541,
    "longitude": -1.9703015034176,
    "hasWebsite": true,
    "hasActiveWebsite": true,
    "hasSocialMedia": false,
    "score": 10,
    "webVisibilityScore": 10,
    "status": "nouveau"
  }
]