[
  {
    "name": "AVEC RESTAURANT",
    "sector": "restaurants",
    "address": "1 RUE DU BREIL 35000 RENNES",
    "city": "35238",
    "phone": null,
    "email": null,
    "website": "https://www.avec-rennes.com/",
    "latitude": 48.096542729,
    "longitude": -1.634824517,
    "hasWebsite": true,
    "hasActiveWebsite": true,
    "hasSocialMedia": false,
    "score": 35,
    "webVisibilityScore": 35,
    "status": "nouveau"
  },
  {
    "name": "RACINES RESTAURANT",
    "sector": "restaurants",
    "address": "4 PASSAGE ANTOINETTE CAILLOT 35000 RENNES",
    "city": "35238",
    "phone": null,
    "email": null,
    "website": "https://www.racines-restaurant.fr/",
    "latitude": 48.1070571647004,
    "longitude": -1.68256304962971,
    "hasWebsite": true,
    "hasActiveWebsite": true,
    "hasSocialMedia": false,
    "score": 35,
    "webVisibilityScore": 35,
    "status": "nouveau"
  },
  {
    "name": "SB RESTAURANT (SB CONSULT RESTAURANT)",
    "sector": "restaurants",
    "address": "2 RUE LOUIS GUILLOUX 35600 REDON",
    "city": "35236",
    "phone": null,
    "email": null,
    "website": "https://entreprises.lefigaro.fr/sb-consult-restaurant-35/entreprise-827970468",
    "latitude": 47.6735866687571,
    "longitude": -2.06311916468946,
    "hasWebsite": true,
    "hasActiveWebsite": true,
    "hasSocialMedia": false,
    "score": 35,
    "webVisibilityScore": 35,
    "status": "nouveau"
  },
  {
    "name": "RESTAURANT L'OUVREE",
    "sector": "restaurants",
    "address": "18 PLACE DES LICES 35000 RENNES",
    "city": "35238",
    "phone": null,
    "email": null,
    "website": "https://www.koifaire.com/bretagne/ouvree,l,-5837.html",
    "latitude": 48.113644479,
    "longitude": -1.682723583,
    "hasWebsite": true,
    "hasActiveWebsite": true,
    "hasSocialMedia": false,
    "score": 35,
    "webVisibilityScore": 35,
    "status": "nouveau"
  },
  {
    "name": "RESTAURANT ZEST (RESTAURANT ZEST)",
    "sector": "restaurants",
    "address": "32 CRS DE LA VILAINE 35510 CESSON-SEVIGNE",
    "city": "35051",
    "phone": null,
    "email": null,
    "website": "http://www.restaurant-zest.fr/",
    "latitude": 48.115650809,
    "longitude": -1.607067802,
    "hasWebsite": true,
    "hasActiveWebsite": true,
    "hasSocialMedia": false,
    "score": 30,
    "webVisibilityScore": 30,
    "status": "nouveau"
  },
  {
    "name": "BUAIS RESTAURANT",
    "sector": "restaurants",
    "address": "12 RUE DE DINARD 35730 PLEURTUIT",
    "city": "35228",
    "phone": null,
    "email": null,
    "website": "https://bouillonliberte.eatbu.com/?lang=fr",
    "latitude": 48.580250539,
    "longitude": -2.058506,
    "hasWebsite": true,
    "hasActiveWebsite": true,
    "hasSocialMedia": false,
    "score": 30,
    "webVisibilityScore": 30,
    "status": "nouveau"
  },
  {
    "name": "RESTAURANT  LUCA",
    "sector": "restaurants",
    "address": "35 RUE DE LA CHALOTAIS 35000 RENNES",
    "city": "35238",
    "phone": null,
    "email": null,
    "website": "https://www.restaurantluca.com/",
    "latitude": 48.109293933,
    "longitude": -1.68331454,
    "hasWebsite": true,
    "hasActiveWebsite": true,
    "hasSocialMedia": false,
    "score": 25,
    "webVisibilityScore": 25,
    "status": "nouveau"
  },
  {
    "name": "TI'MI BOULANGERIE PATISSERIE",
    "sector": "artisans",
    "address": "36 RUE LEVAVASSEUR 35800 DINARD",
    "city": "35093",
    "phone": null,
    "email": null,
    "website": "https://actu.fr/bretagne/dinard_35093/dinard-cette-boulangerie-ecrit-une-nouvelle-page-de-son-histoire_63477668.html",
    "latitude": 48.633844755,
    "longitude": -2.054220497,
    "hasWebsite": true,
    "hasActiveWebsite": true,
    "hasSocialMedia": false,
    "score": 25,
    "webVisibilityScore": 25,
    "status": "nouveau"
  },
  {
    "name": "LA BOULANGERIE D'ARMOR",
    "sector": "artisans",
    "address": "7 RUE LOUIS DELOURMEL 35230 NOYAL-CHATILLON-SUR-SEICHE",
    "city": "35206",
    "phone": null,
    "email": null,
    "website": "https://www.boulangeriedarmor.fr/",
    "latitude": 48.072495451,
    "longitude": -1.666198459,
    "hasWebsite": true,
    "hasActiveWebsite": true,
    "hasSocialMedia": false,
    "score": 25,
    "webVisibilityScore": 25,
    "status": "nouveau"
  },
  {
    "name": "BOULANGERIE GEFFRAY (BOULANGERIE GEFFRAY)",
    "sector": "artisans",
    "address": "2 AVENUE SIR WINSTON CHURCHILL 35000 RENNES",
    "city": "35238",
    "phone": null,
    "email": null,
    "website": "https://fr.mappy.com/poi/648a9cdfb5e5d56ed99a2d4d",
    "latitude": 48.11746382,
    "longitude": -1.707909996,
    "hasWebsite": true,
    "hasActiveWebsite": true,
    "hasSocialMedia": false,
    "score": 25,
    "webVisibilityScore": 25,
    "status": "nouveau"
  },
  {
    "name": "SOC INTERP ARTISAN GARANTIE INVESTISSE (SIAGI)",
    "sector": "artisans",
    "address": "2 RUE JEAN-BAPTISTE PIGALLE 75009 PARIS",
    "city": "75109",
    "phone": null,
    "email": null,
    "website": "https://www.siagi.com/",
    "latitude": 48.878008881,
    "longitude": 2.3321722996,
    "hasWebsite": true,
    "hasActiveWebsite": true,
    "hasSocialMedia": false,
    "score": 25,
    "webVisibilityScore": 25,
    "status": "nouveau"
  },
  {
    "name": "ARTISAN COIFFEUR",
    "sector": "artisans",
    "address": "22 RUE HOCHE 35000 RENNES",
    "city": "35238",
    "phone": null,
    "email": null,
    "website": "https://leperdit-artisan-coiffeur.fr/",
    "latitude": 48.1137811582185,
    "longitude": -1.67723769861029,
    "hasWebsite": true,
    "hasActiveWebsite": true,
    "hasSocialMedia": false,
    "score": 25,
    "webVisibilityScore": 25,
    "status": "nouveau"
  },
  {
    "name": "KARMA COIFFEUR",
    "sector": "artisans",
    "address": "CENTRE CIAL DU BOCAGE 35235 THORIGNE-FOUILLARD",
    "city": "35334",
    "phone": null,
    "email": null,
    "website": "https://www.karma-coiffeur.fr/historique/",
    "latitude": 48.159131969,
    "longitude": -1.580588452,
    "hasWebsite": true,
    "hasActiveWebsite": true,
    "hasSocialMedia": false,
    "score": 25,
    "webVisibilityScore": 25,
    "status": "nouveau"
  },
  {
    "name": "VALATELIER (L'ATELIER DES COIFFEURS)",
    "sector": "artisans",
    "address": "2 A 2 A RUE ALAIN COLAS 35760 MONTGERMONT",
    "city": "35189",
    "phone": null,
    "email": null,
    "website": "https://www.latelierdescoiffes.fr/rennes",
    "latitude": 48.155091999,
    "longitude": -1.717574071,
    "hasWebsite": true,
    "hasActiveWebsite": true,
    "hasSocialMedia": false,
    "score": 25,
    "webVisibilityScore": 25,
    "status": "nouveau"
  },
  {
    "name": "PLEDEX (COIFFEUR & COMPAGNIE)",
    "sector": "artisans",
    "address": "15 RUE NATIONALE 35380 PLELAN-LE-GRAND",
    "city": "35223",
    "phone": null,
    "email": null,
    "website": "https://www.coiffeuretcompagnie.com/fr/coiffeur",
    "latitude": 48.001787987,
    "longitude": -2.100432558,
    "hasWebsite": true,
    "hasActiveWebsite": true,
    "hasSocialMedia": false,
    "score": 25,
    "webVisibilityScore": 25,
    "status": "nouveau"
  },
  {
    "name": "RAPHATELIER (ATELIER DES COIFFEURS)",
    "sector": "artisans",
    "address": "CENTRE COMMERCIAL LA FORGE 35760 SAINT-GREGOIRE",
    "city": "35278",
    "phone": null,
    "email": null,
    "website": "https://www.planity.com/latelier-des-coiffes-rennes-35700",
    "latitude": 48.151210419,
    "longitude": -1.684831076,
    "hasWebsite": true,
    "hasActiveWebsite": true,
    "hasSocialMedia": false,
    "score": 25,
    "webVisibilityScore": 25,
    "status": "nouveau"
  },
  {
    "name": "3ARTS (L'OFFICINE ARTISAN COIFFEUR)",
    "sector": "artisans",
    "address": "8 RUE DU PRE BOTTE 35000 RENNES",
    "city": "35238",
    "phone": null,
    "email": null,
    "website": "https://lofficine.fr/?page_id=7778",
    "latitude": 48.1093251457821,
    "longitude": -1.67964949551815,
    "hasWebsite": true,
    "hasActiveWebsite": true,
    "hasSocialMedia": false,
    "score": 25,
    "webVisibilityScore": 25,
    "status": "nouveau"
  },
  {
    "name": "BUREAU VERITAS CONSTRUCTION",
    "sector": "artisans",
    "address": "1 PL ZAHA HADID 92400 COURBEVOIE",
    "city": "92026",
    "phone": null,
    "email": null,
    "website": "https://construction.bureauveritas.fr/",
    "latitude": 48.889474111496,
    "longitude": 2.25095888639961,
    "hasWebsite": true,
    "hasActiveWebsite": true,
    "hasSocialMedia": false,
    "score": 25,
    "webVisibilityScore": 25,
    "status": "nouveau"
  },
  {
    "name": "APAVE INFRASTRUCTURES ET CONSTRUCTION FRANCE",
    "sector": "artisans",
    "address": "6 RUE DU GENERAL AUDRAN 92400 COURBEVOIE",
    "city": "92026",
    "phone": null,
    "email": null,
    "website": "https://infrastructures-construction.france.apave.com/",
    "latitude": 48.8899461392432,
    "longitude": 2.2549610424377,
    "hasWebsite": true,
    "hasActiveWebsite": true,
    "hasSocialMedia": false,
    "score": 25,
    "webVisibilityScore": 25,
    "status": "nouveau"
  },
  {
    "name": "CERUTTI CONSTRUCTION",
    "sector": "artisans",
    "address": "27 RUE DE LA TELEMATIQUE 42000 SAINT-ETIENNE",
    "city": "42218",
    "phone": null,
    "email": null,
    "website": "https://www.groupecerutti.fr/",
    "latitude": 45.4565449568847,
    "longitude": 4.39460703085485,
    "hasWebsite": true,
    "hasActiveWebsite": true,
    "hasSocialMedia": false,
    "score": 25,
    "webVisibilityScore": 25,
    "status": "nouveau"
  },
  {
    "name": "MORTIER CONSTRUCTION",
    "sector": "BTP",
    "address": "TECHNOPARC L'AUBINIERE 11 AVENUE DES AMETHYSTES 44300 NANTES",
    "city": "44109",
    "phone": null,
    "email": null,
    "website": "https://www.mortier-construction.fr/constructeur-maison/ille-et-vilaine/",
    "latitude": 47.2605808238559,
    "longitude": -1.49724770009549,
    "hasWebsite": true,
    "hasActiveWebsite": true,
    "hasSocialMedia": false,
    "score": 25,
    "webVisibilityScore": 25,
    "status": "nouveau"
  },
  {
    "name": "ALTA CONSTRUCTIONS",
    "sector": "artisans",
    "address": "90 RUE DES LACS 79290 LORETZ-D'ARGENTON",
    "city": "79014",
    "phone": null,
    "email": null,
    "website": "https://a-lta.fr/",
    "latitude": 47.0436290223318,
    "longitude": -0.263775053533614,
    "hasWebsite": true,
    "hasActiveWebsite": true,
    "hasSocialMedia": false,
    "score": 25,
    "webVisibilityScore": 25,
    "status": "nouveau"
  },
  {
    "name": "EIFFAGE CONSTRUCTION BRETAGNE (ECB)",
    "sector": "BTP",
    "address": "2EME ETAGE 24 RUE DU BOURG NOUVEAU 35000 RENNES",
    "city": "35238",
    "phone": null,
    "email": null,
    "website": "https://www.eiffageconstruction.com/",
    "latitude": 48.113055026,
    "longitude": -1.717650945,
    "hasWebsite": true,
    "hasActiveWebsite": true,
    "hasSocialMedia": false,
    "score": 25,
    "webVisibilityScore": 25,
    "status": "nouveau"
  },
  {
    "name": "PAINT CONCEPT CONSTRUCTION",
    "sector": "BTP",
    "address": "PEPINIERE D'ENTRE SYNERGIE ZI STE A RUE LAVOISIER 57190 FLORANGE",
    "city": "57221",
    "phone": null,
    "email": null,
    "website": "https://paintconcept.fr/",
    "latitude": 49.3075098337334,
    "longitude": 6.13113108545593,
    "hasWebsite": true,
    "hasActiveWebsite": true,
    "hasSocialMedia": false,
    "score": 25,
    "webVisibilityScore": 25,
    "status": "nouveau"
  },
  {
    "name": "INGENIERIE CONCEPT ET CONSTRUCTION",
    "sector": "artisans",
    "address": "4 RUE DE MADAGASCAR 29200 BREST",
    "city": "29019",
    "phone": null,
    "email": null,
    "website": "https://i2c-ingenierie.fr/",
    "latitude": 48.385477775,
    "longitude": -4.479978102,
    "hasWebsite": true,
    "hasActiveWebsite": true,
    "hasSocialMedia": false,
    "score": 25,
    "webVisibilityScore": 25,
    "status": "nouveau"
  },
  {
    "name": "FOOTBALL CLUB DE GUIPRY MESSAC (FCGM)",
    "sector": "sport/bien-être",
    "address": "SALLE DES SPORTS 35480 GUIPRY-MESSAC",
    "city": "35176",
    "phone": null,
    "email": null,
    "website": "https://fcgm.fr/",
    "latitude": 47.842874195,
    "longitude": -1.882075011,
    "hasWebsite": true,
    "hasActiveWebsite": true,
    "hasSocialMedia": false,
    "score": 25,
    "webVisibilityScore": 25,
    "status": "nouveau"
  },
  {
    "name": "CLUB OMNISPORTS DU SUD VILAINE",
    "sector": "sport/bien-être",
    "address": "MAISON DES ASSOCIATIONS RUE ST ROCH 35390 GRAND-FOUGERAY",
    "city": "35124",
    "phone": null,
    "email": null,
    "website": "https://www.helloasso.com/e/reg/bretagne/dep/ille-et-vilaine/cat/omnisports",
    "latitude": 47.725439984,
    "longitude": -1.733649908,
    "hasWebsite": true,
    "hasActiveWebsite": true,
    "hasSocialMedia": false,
    "score": 25,
    "webVisibilityScore": 25,
    "status": "nouveau"
  },
  {
    "name": "GROUPEMENT DES JEUNES DU BOCAGE FOUGERAIS",
    "sector": "sport/bien-être",
    "address": "SALLE DES SPORTS 1 ALLEE DES ACACIAS 35133 BEAUCE",
    "city": "35021",
    "phone": null,
    "email": null,
    "website": "https://www.fff.fr/competition/club/551569-gj-bocage-fougerais/resultats-et-calendrier.html",
    "latitude": 48.337396004,
    "longitude": -1.156640985,
    "hasWebsite": true,
    "hasActiveWebsite": true,
    "hasSocialMedia": false,
    "score": 25,
    "webVisibilityScore": 25,
    "status": "nouveau"
  },
  {
    "name": "HOTEL RESTAURANT LE MAUPAS",
    "sector": "artisans",
    "address": "LA BANQUETTE 35290 SAINT ONEN LA CHAPELLE",
    "city": "35302",
    "phone": null,
    "email": null,
    "website": "http://www.europhotel-maupas.com/pages/francais/restaurant.html",
    "latitude": 48.18916148,
    "longitude": -2.168359388,
    "hasWebsite": true,
    "hasActiveWebsite": true,
    "hasSocialMedia": false,
    "score": 20,
    "webVisibilityScore": 20,
    "status": "nouveau"
  },
  {
    "name": "BOULANGERIE NEUHAUSER",
    "sector": "artisans",
    "address": "18 AVENUE FOCH 57730 FOLSCHVILLER",
    "city": "57224",
    "phone": null,
    "email": null,
    "website": "https://www.episens.fr/neuhauser/",
    "latitude": 49.071304293,
    "longitude": 6.6881211053,
    "hasWebsite": true,
    "hasActiveWebsite": true,
    "hasSocialMedia": false,
    "score": 20,
    "webVisibilityScore": 20,
    "status": "nouveau"
  },
  {
    "name": "LA BOULANGERIE DUMANT",
    "sector": "artisans",
    "address": "221 RUE DE FOUGERES 35700 RENNES",
    "city": "35238",
    "phone": null,
    "email": null,
    "website": "https://fr.mappy.com/poi/678356494e14223dcde65de2",
    "latitude": 48.1244397757873,
    "longitude": -1.65832806217755,
    "hasWebsite": true,
    "hasActiveWebsite": true,
    "hasSocialMedia": false,
    "score": 20,
    "webVisibilityScore": 20,
    "status": "nouveau"
  },
  {
    "name": "BOULANGERIE DESMARIEUX FILS",
    "sector": "artisans",
    "address": "12 RUE DE MONTMURAN 35630 LA CHAPELLE-CHAUSSEE",
    "city": "35058",
    "phone": null,
    "email": null,
    "website": "https://www.boulangerie-desmarieux.fr/",
    "latitude": 48.271198132,
    "longitude": -1.854247532,
    "hasWebsite": true,
    "hasActiveWebsite": true,
    "hasSocialMedia": false,
    "score": 20,
    "webVisibilityScore": 20,
    "status": "nouveau"
  },
  {
    "name": "BOULANGERIE B",
    "sector": "artisans",
    "address": "6 AVENUE ALPHONSE LEGAULT 35170 BRUZ",
    "city": "35047",
    "phone": null,
    "email": null,
    "website": "https://maisonbecam.com/",
    "latitude": 48.024740549,
    "longitude": -1.74645005,
    "hasWebsite": true,
    "hasActiveWebsite": true,
    "hasSocialMedia": false,
    "score": 20,
    "webVisibilityScore": 20,
    "status": "nouveau"
  },
  {
    "name": "LA BOULANGERIE D'A COTE",
    "sector": "artisans",
    "address": "44 RUE DU GENERAL LECLERC 35580 GUICHEN",
    "city": "35126",
    "phone": null,
    "email": null,
    "website": "https://www.feuillette.fr/",
    "latitude": 47.967392508,
    "longitude": -1.796834106,
    "hasWebsite": true,
    "hasActiveWebsite": true,
    "hasSocialMedia": false,
    "score": 20,
    "webVisibilityScore": 20,
    "status": "nouveau"
  },
  {
    "name": "SARL GEM BOULANGERIE (MAISON GUICHARD)",
    "sector": "artisans",
    "address": "53 AVENUE DE LA LIBERATION 35380 PLELAN-LE-GRAND",
    "city": "35223",
    "phone": null,
    "email": null,
    "website": null,
    "latitude": 48.001971341,
    "longitude": -2.097710022,
    "hasWebsite": false,
    "hasActiveWebsite": false,
    "hasSocialMedia": false,
    "score": 50,
    "webVisibilityScore": 50,
    "status": "nouveau"
  },
  {
    "name": "BOULANGERIE VANDAME",
    "sector": "artisans",
    "address": "7 RUE MARECHAL JOFFRE 35000 RENNES",
    "city": "35238",
    "phone": null,
    "email": null,
    "website": "https://boulangerievandame.fr/",
    "latitude": 48.1090726636432,
    "longitude": -1.67776833279241,
    "hasWebsite": true,
    "hasActiveWebsite": true,
    "hasSocialMedia": false,
    "score": 20,
    "webVisibilityScore": 20,
    "status": "nouveau"
  },
  {
    "name": "LE PETIT ALBERT COIFFEUR (LE PETIT ALBERT)",
    "sector": "artisans",
    "address": "29 RUE SAINT-MELAINE 35000 RENNES",
    "city": "35238",
    "phone": null,
    "email": null,
    "website": "https://www.le-petitalbert.fr/",
    "latitude": 48.114850357,
    "longitude": -1.67616799,
    "hasWebsite": true,
    "hasActiveWebsite": true,
    "hasSocialMedia": false,
    "score": 20,
    "webVisibilityScore": 20,
    "status": "nouveau"
  },
  {
    "name": "14 NEMOURS (COIFFEUR & COMPAGNIE)",
    "sector": "artisans",
    "address": "14 RUE DE NEMOURS 35000 RENNES",
    "city": "35238",
    "phone": null,
    "email": null,
    "website": "https://www.beautynailhairsalons.com/FR/Rennes/276995742410/COIFFEUR-%26-COMPAGNIE",
    "latitude": 48.1087290721394,
    "longitude": -1.68035842152818,
    "hasWebsite": true,
    "hasActiveWebsite": true,
    "hasSocialMedia": false,
    "score": 20,
    "webVisibilityScore": 20,
    "status": "nouveau"
  },
  {
    "name": "ELLA (LA CABANE DU COIFFEUR)",
    "sector": "artisans",
    "address": "C. COMMERCIAL DES GENETS 2 RUE DES TAMARIS 35131 PONT PEAN",
    "city": "35363",
    "phone": null,
    "email": null,
    "website": null,
    "latitude": 48.013785431,
    "longitude": -1.703741441,
    "hasWebsite": false,
    "hasActiveWebsite": false,
    "hasSocialMedia": false,
    "score": 50,
    "webVisibilityScore": 50,
    "status": "nouveau"
  },
  {
    "name": "HOLDING PACE",
    "sector": "artisans",
    "address": "9 LA LONGUERAIS 35137 BEDEE",
    "city": "35023",
    "phone": null,
    "email": null,
    "website": "https://www.ville-pace.bzh/",
    "latitude": 48.173890634,
    "longitude": -1.9600017,
    "hasWebsite": true,
    "hasActiveWebsite": true,
    "hasSocialMedia": false,
    "score": 20,
    "webVisibilityScore": 20,
    "status": "nouveau"
  },
  {
    "name": "OUEST ECO CONSTRUCTION",
    "sector": "BTP",
    "address": "21 RUE DE LA REPUBLIQUE 50600 SAINT-HILAIRE-DU-HARCOUET",
    "city": "50484",
    "phone": null,
    "email": null,
    "website": "https://ouest-eco-construction.fr/",
    "latitude": 48.57763212,
    "longitude": -1.094933254,
    "hasWebsite": true,
    "hasActiveWebsite": true,
    "hasSocialMedia": false,
    "score": 20,
    "webVisibilityScore": 20,
    "status": "nouveau"
  },
  {
    "name": "UNION NATIONALE DES INDUSTRIES DE CARRIERES ET MATERIAUX DE CONSTRUCTION (UNICEM)",
    "sector": "artisans",
    "address": "16 B BOULEVARD JEAN JAURES 92110 CLICHY",
    "city": "92024",
    "phone": null,
    "email": null,
    "website": "https://www.unicem.fr/",
    "latitude": 48.8977929184591,
    "longitude": 2.30884034652293,
    "hasWebsite": true,
    "hasActiveWebsite": true,
    "hasSocialMedia": false,
    "score": 20,
    "webVisibilityScore": 20,
    "status": "nouveau"
  },
  {
    "name": "CCL CONSTRUCTION",
    "sector": "artisans",
    "address": "9 ZA DE LA PICASSIERE 35500 SAINT M'HERVE",
    "city": "35300",
    "phone": null,
    "email": null,
    "website": "https://www.ccl-construction.fr/",
    "latitude": 48.17342291,
    "longitude": -1.11874016,
    "hasWebsite": true,
    "hasActiveWebsite": true,
    "hasSocialMedia": false,
    "score": 20,
    "webVisibilityScore": 20,
    "status": "nouveau"
  },
  {
    "name": "TONIC' GYM GERMANAISE",
    "sector": "sport/bien-être",
    "address": "SALLE DES SPORTS MAIRIE 35133 SAINT-GERMAIN-EN-COGLES",
    "city": "35273",
    "phone": null,
    "email": null,
    "website": "https://www.saint-germain-en-cogles.com/carte/tonic-gym-zumba-pilate-gym/",
    "latitude": 48.404111736,
    "longitude": -1.262934297,
    "hasWebsite": true,
    "hasActiveWebsite": true,
    "hasSocialMedia": false,
    "score": 20,
    "webVisibilityScore": 20,
    "status": "nouveau"
  },
  {
    "name": "SECTION GYMNASTIQUE VOLONTAIRE BAIS",
    "sector": "sport/bien-être",
    "address": "HALLE DES SPORTS SALLE COM RUE DE LA FONTAINE 35680 BAIS",
    "city": "35014",
    "phone": null,
    "email": null,
    "website": "https://assoce.fr/siren/342386950/SECTION-GYMNASTIQUE-VOLONTAIRE-BAIS",
    "latitude": 48.011936804,
    "longitude": -1.293129078,
    "hasWebsite": true,
    "hasActiveWebsite": true,
    "hasSocialMedia": false,
    "score": 20,
    "webVisibilityScore": 20,
    "status": "nouveau"
  },
  {
    "name": "VOLLEY BALL CLUB DE GUICHEN",
    "sector": "sport/bien-être",
    "address": "MAIRIE PLACE GEORGES LE CORNEC 35580 GUICHEN",
    "city": "35126",
    "phone": null,
    "email": null,
    "website": "https://guichen-bourg-des-comptes-volley-ball.kalisport.com/",
    "latitude": 47.965360511,
    "longitude": -1.79804757,
    "hasWebsite": true,
    "hasActiveWebsite": true,
    "hasSocialMedia": false,
    "score": 20,
    "webVisibilityScore": 20,
    "status": "nouveau"
  },
  {
    "name": "AMICALE SPORTIVE NOYALAISE",
    "sector": "sport/bien-être",
    "address": "SALLE COMMUNALE DES SPORTS BOURG 35530 NOYAL-SUR-VILAINE",
    "city": "35207",
    "phone": null,
    "email": null,
    "website": "https://ballejaune.com/club/asntc",
    "latitude": 48.106233145,
    "longitude": -1.518784997,
    "hasWebsite": true,
    "hasActiveWebsite": true,
    "hasSocialMedia": false,
    "score": 20,
    "webVisibilityScore": 20,
    "status": "nouveau"
  },
  {
    "name": "AMICALE LAIQUE PLEURTUIT",
    "sector": "sport/bien-être",
    "address": "SALLE DES SPORTS PL DE LA LIBERATION 35730 PLEURTUIT",
    "city": "35228",
    "phone": null,
    "email": null,
    "website": "https://al-pleurtuit-basket.kalisport.com/",
    "latitude": 48.568626262,
    "longitude": -2.074703944,
    "hasWebsite": true,
    "hasActiveWebsite": true,
    "hasSocialMedia": false,
    "score": 20,
    "webVisibilityScore": 20,
    "status": "nouveau"
  },
  {
    "name": "O'TACOS RESTAURANT I",
    "sector": "restaurants",
    "address": "CAP SUD 106 AVENUE MARX DORMOY 92120 MONTROUGE",
    "city": "92049",
    "phone": null,
    "email": null,
    "website": "https://o-tacos.com/",
    "latitude": 48.8103364677701,
    "longitude": 2.31393456274942,
    "hasWebsite": true,
    "hasActiveWebsite": true,
    "hasSocialMedia": false,
    "score": 15,
    "webVisibilityScore": 15,
    "status": "nouveau"
  },
  {
    "name": "PONTIVY RESTAURANT",
    "sector": "restaurants",
    "address": "ZONE D'ACTIVITE COMMERCIALE LE SIGNAN RUE DU CAPITAINE LEROY 56300 PONTIVY",
    "city": "56178",
    "phone": null,
    "email": null,
    "website": "https://www.leboeufquifume.fr/",
    "latitude": 48.0420962509619,
    "longitude": -2.95906240081942,
    "hasWebsite": true,
    "hasActiveWebsite": true,
    "hasSocialMedia": false,
    "score": 15,
    "webVisibilityScore": 15,
    "status": "nouveau"
  },
  {
    "name": "RESTAURANT DE L'ETANG",
    "sector": "restaurants",
    "address": "3 PLACE DE LA MAIRIE 35130 DROUGES",
    "city": "35102",
    "phone": null,
    "email": null,
    "website": "https://www.tourisme-rennes.com/restaurant/georgette/",
    "latitude": 47.900448869,
    "longitude": -1.26507629,
    "hasWebsite": true,
    "hasActiveWebsite": true,
    "hasSocialMedia": false,
    "score": 15,
    "webVisibilityScore": 15,
    "status": "nouveau"
  },
  {
    "name": "RESTAURANT DES BOIS",
    "sector": "restaurants",
    "address": "LE BOIS DES CHAPELLES 35850 IRODOUER",
    "city": "35135",
    "phone": null,
    "email": null,
    "website": "https://www.tourisme-rennes.com/restaurant/au-parc-des-bois/",
    "latitude": 48.219029969,
    "longitude": -1.964133666,
    "hasWebsite": true,
    "hasActiveWebsite": true,
    "hasSocialMedia": false,
    "score": 15,
    "webVisibilityScore": 15,
    "status": "nouveau"
  },
  {
    "name": "AS DU RESTAURANT (BAR BRASSERIE DE LA MAIRIE)",
    "sector": "restaurants",
    "address": "19 COURS CAMILLE CLAUDEL 35136 SAINT-JACQUES-DE-LA-LANDE",
    "city": "35281",
    "phone": null,
    "email": null,
    "website": "https://www.tourisme-rennes.com/decouvrir-rennes/gastronomie/brasseries/",
    "latitude": 48.081048613,
    "longitude": -1.713292047,
    "hasWebsite": true,
    "hasActiveWebsite": true,
    "hasSocialMedia": false,
    "score": 15,
    "webVisibilityScore": 15,
    "status": "nouveau"
  },
  {
    "name": "SUWON RESTAURANT",
    "sector": "restaurants",
    "address": "11 RUE DES ROUGES GORGES 35580 GOVEN",
    "city": "35123",
    "phone": null,
    "email": null,
    "website": "http://suwon-restaurant.fr/",
    "latitude": 48.0079840380312,
    "longitude": -1.85231906650407,
    "hasWebsite": true,
    "hasActiveWebsite": true,
    "hasSocialMedia": false,
    "score": 15,
    "webVisibilityScore": 15,
    "status": "nouveau"
  },
  {
    "name": "RESTAURANT LE TROQUET",
    "sector": "restaurants",
    "address": "19 QUAI GAMBETTA 35260 CANCALE",
    "city": "35049",
    "phone": null,
    "email": null,
    "website": "https://www.letroquet40.com/about-1",
    "latitude": 48.671373526,
    "longitude": -1.855058738,
    "hasWebsite": true,
    "hasActiveWebsite": true,
    "hasSocialMedia": false,
    "score": 15,
    "webVisibilityScore": 15,
    "status": "nouveau"
  },
  {
    "name": "MONDIAL RESTAURANT",
    "sector": "restaurants",
    "address": "27 RUE DES ANTILLES 35400 SAINT-MALO",
    "city": "35288",
    "phone": null,
    "email": null,
    "website": "https://lerestaurantmondial.fr/en/services",
    "latitude": 48.6383210540253,
    "longitude": -1.99785082248458,
    "hasWebsite": true,
    "hasActiveWebsite": true,
    "hasSocialMedia": false,
    "score": 15,
    "webVisibilityScore": 15,
    "status": "nouveau"
  },
  {
    "name": "RESTAURANT LA VILLE CODET",
    "sector": "restaurants",
    "address": "LA VILLE CODET 35360 MONTAUBAN-DE-BRETAGNE",
    "city": "35184",
    "phone": null,
    "email": null,
    "website": null,
    "latitude": 48.196963998,
    "longitude": -2.100960649,
    "hasWebsite": false,
    "hasActiveWebsite": false,
    "hasSocialMedia": false,
    "score": 45,
    "webVisibilityScore": 45,
    "status": "nouveau"
  },
  {
    "name": "SARL KAYS RESTAURANT (KEBAB DU LANDEL)",
    "sector": "restaurants",
    "address": "31 PLACE JEAN NORMAND 35200 RENNES",
    "city": "35238",
    "phone": null,
    "email": null,
    "website": null,
    "latitude": 48.0881250106376,
    "longitude": -1.65390704823561,
    "hasWebsite": false,
    "hasActiveWebsite": false,
    "hasSocialMedia": false,
    "score": 45,
    "webVisibilityScore": 45,
    "status": "nouveau"
  },
  {
    "name": "LE FUN BAR RESTAURANT (LA GUINGUETTE DE SAINT JACUT)",
    "sector": "restaurants",
    "address": "PARKING DE LA PLAGE DES HAAS RUE DES HAAS 22750 SAINT-JACUT-DE-LA-MER",
    "city": "22302",
    "phone": null,
    "email": null,
    "website": "https://www.dinan-capfrehel.com/restaurants/la-guinguette-de-st-jacut/",
    "latitude": 48.5995637189743,
    "longitude": -2.19322662049714,
    "hasWebsite": true,
    "hasActiveWebsite": true,
    "hasSocialMedia": false,
    "score": 15,
    "webVisibilityScore": 15,
    "status": "nouveau"
  },
  {
    "name": "BOULANGERIES BG (B B G)",
    "sector": "artisans",
    "address": "615 AVENUE DE LA CHAFFINE 13160 CHATEAURENARD",
    "city": "13027",
    "phone": null,
    "email": null,
    "website": "https://www.allbiz.fr/boulangeries-b-g_32r-04-32-62-07-79",
    "latitude": 43.8903640316375,
    "longitude": 4.82612901648503,
    "hasWebsite": true,
    "hasActiveWebsite": true,
    "hasSocialMedia": false,
    "score": 15,
    "webVisibilityScore": 15,
    "status": "nouveau"
  },
  {
    "name": "BOULANGERIE HALLIER",
    "sector": "artisans",
    "address": "1 PLACE DE LA MAIRIE 35800 SAINT-BRIAC-SUR-MER",
    "city": "35256",
    "phone": null,
    "email": null,
    "website": "https://www.saintbriac.fr/contacts/boulangerie-hallier/",
    "latitude": 48.618482282,
    "longitude": -2.131205156,
    "hasWebsite": true,
    "hasActiveWebsite": true,
    "hasSocialMedia": false,
    "score": 15,
    "webVisibilityScore": 15,
    "status": "nouveau"
  },
  {
    "name": "BOULANGERIE AU FEU DE BOIS (BOULANGERIE AU FEU DE BOIS)",
    "sector": "artisans",
    "address": "15 RUE DE VILLECARTIER 35610 TRANS-LA-FORET",
    "city": "35339",
    "phone": null,
    "email": null,
    "website": "https://kerbara.fr/",
    "latitude": 48.496401402,
    "longitude": -1.588120448,
    "hasWebsite": true,
    "hasActiveWebsite": true,
    "hasSocialMedia": false,
    "score": 15,
    "webVisibilityScore": 15,
    "status": "nouveau"
  },
  {
    "name": "BOULANGERIE CLOUARD",
    "sector": "artisans",
    "address": "13 RUE DU PORT 35260 CANCALE",
    "city": "35049",
    "phone": null,
    "email": null,
    "website": "https://controlessanitaires.fr/france/bretagne/ille-et-vilaine/35260/cancale/boulangerie-clouard/523100501000.html",
    "latitude": 48.67658966,
    "longitude": -1.851213414,
    "hasWebsite": true,
    "hasActiveWebsite": true,
    "hasSocialMedia": false,
    "score": 15,
    "webVisibilityScore": 15,
    "status": "nouveau"
  },
  {
    "name": "BOULANGERIE LE DIODIC",
    "sector": "artisans",
    "address": "21 RUE DE RENNES 35830 BETTON",
    "city": "35024",
    "phone": null,
    "email": null,
    "website": "https://uneboulangerie.fr/35/betton/boulangerie-le-diodic-d1y",
    "latitude": 48.179068386,
    "longitude": -1.636964179,
    "hasWebsite": true,
    "hasActiveWebsite": true,
    "hasSocialMedia": false,
    "score": 15,
    "webVisibilityScore": 15,
    "status": "nouveau"
  },
  {
    "name": "ELITE ARTISAN",
    "sector": "BTP",
    "address": "21 AVENUE DES FRERES MONTGOLFIER 69680 CHASSIEU",
    "city": "69271",
    "phone": null,
    "email": null,
    "website": "https://fr.mappy.com/poi/5fdb6d11101c7119de2d6f7b",
    "latitude": 45.727415143,
    "longitude": 4.9684830658,
    "hasWebsite": true,
    "hasActiveWebsite": true,
    "hasSocialMedia": false,
    "score": 15,
    "webVisibilityScore": 15,
    "status": "nouveau"
  },
  {
    "name": "LES ARTISANES",
    "sector": "artisans",
    "address": "43 B RUE JACQUES CARTIER 35430 LA VILLE-ES-NONAIS",
    "city": "35358",
    "phone": null,
    "email": null,
    "website": "https://www.artisanat.fr/",
    "latitude": 48.5485449573686,
    "longitude": -1.9478402433695,
    "hasWebsite": true,
    "hasActiveWebsite": true,
    "hasSocialMedia": false,
    "score": 15,
    "webVisibilityScore": 15,
    "status": "nouveau"
  },
  {
    "name": "LES ARTISANS COIFFEURS (LES ARTISANS COIFFEURS)",
    "sector": "artisans",
    "address": "12 RUE DE NANTES 35130 LA GUERCHE-DE-BRETAGNE",
    "city": "35125",
    "phone": null,
    "email": null,
    "website": "https://www.planity.com/ronan-artisan-coiffeur-zola-35000-rennes",
    "latitude": 47.941632986,
    "longitude": -1.231204477,
    "hasWebsite": true,
    "hasActiveWebsite": true,
    "hasSocialMedia": false,
    "score": 15,
    "webVisibilityScore": 15,
    "status": "nouveau"
  },
  {
    "name": "LE QUAI DES ARTISANS (LE QUAI DES ARTISANS)",
    "sector": "restaurants",
    "address": "12 RUE DES MACAREUX 35830 BETTON",
    "city": "35024",
    "phone": null,
    "email": null,
    "website": "https://fabriquecitoyenne.fr/project/quais-de-vilaine/presentation/presentation",
    "latitude": 48.1870394993778,
    "longitude": -1.64462770281545,
    "hasWebsite": true,
    "hasActiveWebsite": true,
    "hasSocialMedia": false,
    "score": 15,
    "webVisibilityScore": 15,
    "status": "nouveau"
  },
  {
    "name": "AUX ARTISANS CREATEURS",
    "sector": "restaurants",
    "address": "1 RUE DES FRANCS-BOURGEOIS 35000 RENNES",
    "city": "35238",
    "phone": null,
    "email": null,
    "website": "https://bonjourennes.com/10-spots-de-createurs-rennais-a-decouvrir/",
    "latitude": 48.110459585,
    "longitude": -1.675734852,
    "hasWebsite": true,
    "hasActiveWebsite": true,
    "hasSocialMedia": false,
    "score": 15,
    "webVisibilityScore": 15,
    "status": "nouveau"
  },
  {
    "name": "LE COIFFEUR (LE COIFFEUR)",
    "sector": "artisans",
    "address": "54 RUE VILLE PEPIN 35400 SAINT-MALO",
    "city": "35288",
    "phone": null,
    "email": null,
    "website": "https://www.planity.com/le-c-coiffeur-35000-rennes",
    "latitude": 48.6352390778843,
    "longitude": -2.01403221596105,
    "hasWebsite": true,
    "hasActiveWebsite": true,
    "hasSocialMedia": false,
    "score": 15,
    "webVisibilityScore": 15,
    "status": "nouveau"
  },
  {
    "name": "RIM COIFFEUR (RIM COIFFEUR)",
    "sector": "artisans",
    "address": "10 RUE DU MORBIHAN 35700 RENNES",
    "city": "35238",
    "phone": null,
    "email": null,
    "website": "https://www.planity.com/rim-coiffeur-35700-rennes",
    "latitude": 48.1329347933672,
    "longitude": -1.66922203800212,
    "hasWebsite": true,
    "hasActiveWebsite": true,
    "hasSocialMedia": false,
    "score": 15,
    "webVisibilityScore": 15,
    "status": "nouveau"
  },
  {
    "name": "COIFFEUR NUMERO 1 (COIFFEUR NUMERO 1)",
    "sector": "artisans",
    "address": "226 RUE DE NANTES 35136 SAINT-JACQUES-DE-LA-LANDE",
    "city": "35281",
    "phone": null,
    "email": null,
    "website": "https://www.planity.com/coiffeur-n1-avec-sans-rdv-35200-saint-jacques-de-la-lande",
    "latitude": 48.096444966239,
    "longitude": -1.68958513028768,
    "hasWebsite": true,
    "hasActiveWebsite": true,
    "hasSocialMedia": false,
    "score": 15,
    "webVisibilityScore": 15,
    "status": "nouveau"
  },
  {
    "name": "COIFFEUR N 1",
    "sector": "artisans",
    "address": "10 RUE DU MORBIHAN 35700 RENNES",
    "city": "35238",
    "phone": null,
    "email": null,
    "website": "https://www.planity.com/",
    "latitude": 48.1329347933672,
    "longitude": -1.66922203800212,
    "hasWebsite": true,
    "hasActiveWebsite": true,
    "hasSocialMedia": false,
    "score": 15,
    "webVisibilityScore": 15,
    "status": "nouveau"
  },
  {
    "name": "HAPPY CURL",
    "sector": "artisans",
    "address": "60 RUE SALVADOR ALLENDE 54510 TOMBLAINE",
    "city": "54526",
    "phone": null,
    "email": null,
    "website": "https://www.dnb.com/business-directory/company-profiles.happy_curl.7ffeffcb7fc1ece3972fab21441d2c90.html",
    "latitude": 48.682123258,
    "longitude": 6.2321863855,
    "hasWebsite": true,
    "hasActiveWebsite": true,
    "hasSocialMedia": false,
    "score": 15,
    "webVisibilityScore": 15,
    "status": "nouveau"
  },
  {
    "name": "NATHALIE DESMONTS (NE ARTISAN COIFFEUR)",
    "sector": "artisans",
    "address": "38 ALLEE DE LA MERCERAIS 35136 SAINT-JACQUES-DE-LA-LANDE",
    "city": "35281",
    "phone": null,
    "email": null,
    "website": "https://infonet.fr/entreprises/49142988200021-desmonts-nathalie/",
    "latitude": 48.061424853,
    "longitude": -1.727066219,
    "hasWebsite": true,
    "hasActiveWebsite": true,
    "hasSocialMedia": false,
    "score": 15,
    "webVisibilityScore": 15,
    "status": "nouveau"
  },
  {
    "name": "S.P.",
    "sector": "artisans",
    "address": "RESIDENCE GEORGES BRASSENS 64 BOULEVARD VILLEBOIS-MAREUIL 35000 RENNES",
    "city": "35238",
    "phone": null,
    "email": null,
    "website": "https://www.staderennais.com/",
    "latitude": 48.104932973,
    "longitude": -1.650569006,
    "hasWebsite": true,
    "hasActiveWebsite": true,
    "hasSocialMedia": false,
    "score": 15,
    "webVisibilityScore": 15,
    "status": "nouveau"
  },
  {
    "name": "CHAFAA NAIT MAMMAR (CHAFAA COIFFEUR BARBIER)",
    "sector": "artisans",
    "address": "7 RUE DE BREST 35500 VITRE",
    "city": "35360",
    "phone": null,
    "email": null,
    "website": "https://www.kelest.fr/a/monsieur-chafaa-nait-mammar-vitre",
    "latitude": 48.123761518,
    "longitude": -1.216221971,
    "hasWebsite": true,
    "hasActiveWebsite": true,
    "hasSocialMedia": false,
    "score": 15,
    "webVisibilityScore": 15,
    "status": "nouveau"
  },
  {
    "name": "LE SOURIRE DU PLOMBIER",
    "sector": "restaurants",
    "address": "12 QUAI DUGUAY-TROUIN 35000 RENNES",
    "city": "35238",
    "phone": null,
    "email": null,
    "website": "https://sourireduplombier.com/",
    "latitude": 48.1102061008124,
    "longitude": -1.68163887621506,
    "hasWebsite": true,
    "hasActiveWebsite": true,
    "hasSocialMedia": false,
    "score": 15,
    "webVisibilityScore": 15,
    "status": "nouveau"
  },
  {
    "name": "GROUPEMENT DES ARTISANS PLOMBIERS CHAUFFAGISTES ELECTRICIENS D'ILLE ET VILAINE (G.P.A.C. 35)",
    "sector": "artisans",
    "address": "ZAC DES TOUCHES VILLAGE DES ARTISANS 3 9 BOULEVARD DU SCORFF 35740 PACE",
    "city": "35210",
    "phone": null,
    "email": null,
    "website": "https://artisan35.com/",
    "latitude": 48.1418704394557,
    "longitude": -1.76034209423264,
    "hasWebsite": true,
    "hasActiveWebsite": true,
    "hasSocialMedia": false,
    "score": 15,
    "webVisibilityScore": 15,
    "status": "nouveau"
  },
  {
    "name": "ARTISAN ELECTRICIEN RUELLAN (ARTISAN ELECTRICIEN RUELLAN) (AER)",
    "sector": "BTP",
    "address": "7 LE CHEMIN VERT 35590 SAINT-GILLES",
    "city": "35275",
    "phone": null,
    "email": null,
    "website": "https://www.aer35.com/",
    "latitude": 48.156455997,
    "longitude": -1.845517944,
    "hasWebsite": true,
    "hasActiveWebsite": true,
    "hasSocialMedia": false,
    "score": 15,
    "webVisibilityScore": 15,
    "status": "nouveau"
  },
  {
    "name": "SOCOTEC CONSTRUCTION",
    "sector": "artisans",
    "address": "5 PLACE DES FRERES MONTGOLFIER 78280 GUYANCOURT",
    "city": "78297",
    "phone": null,
    "email": null,
    "website": "https://nos-agences.socotec.fr/fr/bretagne/ille-et-vilaine/rennes",
    "latitude": 48.786654872548,
    "longitude": 2.05266450726145,
    "hasWebsite": true,
    "hasActiveWebsite": true,
    "hasSocialMedia": false,
    "score": 15,
    "webVisibilityScore": 15,
    "status": "nouveau"
  },
  {
    "name": "POLYEXPERT CONSTRUCTION",
    "sector": "artisans",
    "address": "49-51 49 RUE DE PARIS 92110 CLICHY",
    "city": "92024",
    "phone": null,
    "email": null,
    "website": "https://www.polyexpert-construction.fr/implantation/rennes.html",
    "latitude": 48.8989355015923,
    "longitude": 2.30579194766465,
    "hasWebsite": true,
    "hasActiveWebsite": true,
    "hasSocialMedia": false,
    "score": 15,
    "webVisibilityScore": 15,
    "status": "nouveau"
  },
  {
    "name": "CONSTRUCTEL CONSTRUCTIONS TELECOMMUNICA.",
    "sector": "BTP",
    "address": "ZAD DE MORLON 1 RUE JEAN BAPTISTE COROT 26800 PORTES-LES-VALENCE",
    "city": "26252",
    "phone": null,
    "email": null,
    "website": "https://constructel.net/fr/home",
    "latitude": 44.874726115,
    "longitude": 4.866756511,
    "hasWebsite": true,
    "hasActiveWebsite": true,
    "hasSocialMedia": false,
    "score": 15,
    "webVisibilityScore": 15,
    "status": "nouveau"
  },
  {
    "name": "OPERATEUR DE COMPETENCES DE LA CONSTRUCTION",
    "sector": "artisans",
    "address": "32 RUE RENE BOULANGER 75010 PARIS",
    "city": "75110",
    "phone": null,
    "email": null,
    "website": "https://www.constructys.fr/",
    "latitude": 48.868673292,
    "longitude": 2.3614574483,
    "hasWebsite": true,
    "hasActiveWebsite": true,
    "hasSocialMedia": false,
    "score": 15,
    "webVisibilityScore": 15,
    "status": "nouveau"
  },
  {
    "name": "2LM CONSTRUCTIONS (2LM CONSTRUCTIONS)",
    "sector": "artisans",
    "address": "2 PL DU PRT CARNOT 35300 FOUGERES",
    "city": "35115",
    "phone": null,
    "email": null,
    "website": "https://www.2lmconstructions.com/",
    "latitude": 48.352942511,
    "longitude": -1.198822037,
    "hasWebsite": true,
    "hasActiveWebsite": true,
    "hasSocialMedia": false,
    "score": 15,
    "webVisibilityScore": 15,
    "status": "nouveau"
  },
  {
    "name": "ASS COM SPORTS LOISIRS CHAPELLE FOUG (ACSL)",
    "sector": "sport/bien-être",
    "address": "MAIRIE 35520 LA CHAPELLE-DES-FOUGERETZ",
    "city": "35059",
    "phone": null,
    "email": null,
    "website": "https://acsl.sportsregions.fr/",
    "latitude": 48.17041433,
    "longitude": -1.72101437,
    "hasWebsite": true,
    "hasActiveWebsite": true,
    "hasSocialMedia": false,
    "score": 15,
    "webVisibilityScore": 15,
    "status": "nouveau"
  },
  {
    "name": "COURIR A BAINS",
    "sector": "sport/bien-être",
    "address": "SALLE DES SPORTS RUE DE MUNCHHOUSE 35600 BAINS-SUR-OUST",
    "city": "35013",
    "phone": null,
    "email": null,
    "website": "https://www.courir.com/fr/magasin?StoreID=2503",
    "latitude": 47.702503386,
    "longitude": -2.06559452,
    "hasWebsite": true,
    "hasActiveWebsite": true,
    "hasSocialMedia": false,
    "score": 15,
    "webVisibilityScore": 15,
    "status": "nouveau"
  },
  {
    "name": "YOGA BAZOUGES",
    "sector": "sport/bien-être",
    "address": "SALLE DES SPORTS RUE DE LA VALLEE 35560 BAZOUGES-LA-PEROUSE",
    "city": "35019",
    "phone": null,
    "email": null,
    "website": "https://www.yoga-dalibard.com/",
    "latitude": 48.426825941,
    "longitude": -1.572104277,
    "hasWebsite": true,
    "hasActiveWebsite": true,
    "hasSocialMedia": false,
    "score": 15,
    "webVisibilityScore": 15,
    "status": "nouveau"
  },
  {
    "name": "ASS TENNIS GOVEN",
    "sector": "sport/bien-être",
    "address": "4 RUE DE L'ANCIENNE GARE 35580 GOVEN",
    "city": "35123",
    "phone": null,
    "email": null,
    "website": "https://tenup.fft.fr/club/52350624",
    "latitude": 48.006263642,
    "longitude": -1.850207951,
    "hasWebsite": true,
    "hasActiveWebsite": true,
    "hasSocialMedia": false,
    "score": 15,
    "webVisibilityScore": 15,
    "status": "nouveau"
  },
  {
    "name": "ESPOIR IFFENDIC",
    "sector": "sport/bien-être",
    "address": "MAIRIE PLACE DE L'EGLISE 35750 IFFENDIC",
    "city": "35133",
    "phone": null,
    "email": null,
    "website": "https://www.infobel.com/fr/france/espoir_iffendic/iffendic/FR106501194-0299099159/businessdetails.aspx",
    "latitude": 48.129462383,
    "longitude": -2.035174055,
    "hasWebsite": true,
    "hasActiveWebsite": true,
    "hasSocialMedia": false,
    "score": 15,
    "webVisibilityScore": 15,
    "status": "nouveau"
  },
  {
    "name": "AVANT GARDE DE TRESBOEUF",
    "sector": "sport/bien-être",
    "address": "MAIRIE 35320 TRESBOEUF",
    "city": "35343",
    "phone": null,
    "email": null,
    "website": "https://badmania.fr/club-informations-1687-avant-garde-tresboeuf.html",
    "latitude": 47.874634268,
    "longitude": -1.540598811,
    "hasWebsite": true,
    "hasActiveWebsite": true,
    "hasSocialMedia": false,
    "score": 15,
    "webVisibilityScore": 15,
    "status": "nouveau"
  },
  {
    "name": "VOLLEY-CLUB DE JAVENE",
    "sector": "sport/bien-être",
    "address": "2 PLACE SAINT MARTIN 35133 JAVENE",
    "city": "35137",
    "phone": null,
    "email": null,
    "website": "https://www.mairie-javene.fr/contacts/volley-club/",
    "latitude": 48.319580980012,
    "longitude": -1.21751039363427,
    "hasWebsite": true,
    "hasActiveWebsite": true,
    "hasSocialMedia": false,
    "score": 15,
    "webVisibilityScore": 15,
    "status": "nouveau"
  },
  {
    "name": "GYM CLUB LA CHAPELLE THOUARAULT",
    "sector": "sport/bien-être",
    "address": "MAIRIE 35590 LA CHAPELLE-THOUARAULT",
    "city": "35065",
    "phone": null,
    "email": null,
    "website": "https://www.lachapellethouarault.fr/",
    "latitude": 48.12034446,
    "longitude": -1.865986192,
    "hasWebsite": true,
    "hasActiveWebsite": true,
    "hasSocialMedia": false,
    "score": 15,
    "webVisibilityScore": 15,
    "status": "nouveau"
  },
  {
    "name": "GHIZLANE KHABBABI (MASSAGE DU MONDE)",
    "sector": "artisans",
    "address": "5 RUE DE CORNUETTE 22250 LANRELAS",
    "city": "22114",
    "phone": null,
    "email": null,
    "website": "https://latable-de-massage.fr/massages-du-monde/",
    "latitude": 48.252281246,
    "longitude": -2.295342638,
    "hasWebsite": true,
    "hasActiveWebsite": true,
    "hasSocialMedia": false,
    "score": 15,
    "webVisibilityScore": 15,
    "status": "nouveau"
  },
  {
    "name": "JENNIFER BERTHELOT (KEBAIKAN MASSAGES BIEN-ETRE)",
    "sector": "artisans",
    "address": "4 T RUE DE MONTSIFROT 35520 LA MEZIERE",
    "city": "35177",
    "phone": null,
    "email": null,
    "website": "https://www.lart-du-bien-etre.fr/",
    "latitude": 48.2198930555339,
    "longitude": -1.75483204024255,
    "hasWebsite": true,
    "hasActiveWebsite": true,
    "hasSocialMedia": false,
    "score": 15,
    "webVisibilityScore": 15,
    "status": "nouveau"
  },
  {
    "name": "GWENAEL HERVE (HERVE) (GWENAEL HERVE MASSAGE BIEN ETRE)",
    "sector": "artisans",
    "address": "6 RUE DES GENETS 35170 BRUZ",
    "city": "35047",
    "phone": null,
    "email": null,
    "website": "https://fr.mappy.com/poi/69bf8c4a0cbc003962d5a62c",
    "latitude": 48.0261280086972,
    "longitude": -1.73354497799565,
    "hasWebsite": true,
    "hasActiveWebsite": true,
    "hasSocialMedia": false,
    "score": 15,
    "webVisibilityScore": 15,
    "status": "nouveau"
  },
  {
    "name": "MARION SIMON (MARION SIMON PRATICIENNE EN MASSAGES DE BIEN-ETRE)",
    "sector": "artisans",
    "address": "11 RUE ROGER-HENRI GUERRAND 35000 RENNES",
    "city": "35238",
    "phone": null,
    "email": null,
    "website": "https://www.marionmassagesbienetre.fr/book-online",
    "latitude": 48.0989328537244,
    "longitude": -1.69832009449013,
    "hasWebsite": true,
    "hasActiveWebsite": true,
    "hasSocialMedia": false,
    "score": 15,
    "webVisibilityScore": 15,
    "status": "nouveau"
  },
  {
    "name": "PATRICE OUDARD (BIEN ETRE ET MASSAGES)",
    "sector": "artisans",
    "address": "10 RUE JOSEPH-MARIE JACQUARD 35590 SAINT-GILLES",
    "city": "35275",
    "phone": null,
    "email": null,
    "website": "https://bienetreetmassages.fr/patrice",
    "latitude": 48.1503529816498,
    "longitude": -1.84076012005708,
    "hasWebsite": true,
    "hasActiveWebsite": true,
    "hasSocialMedia": false,
    "score": 15,
    "webVisibilityScore": 15,
    "status": "nouveau"
  },
  {
    "name": "BOULANGERIE PASQUIER",
    "sector": "artisans",
    "address": "82 BOULEVARD JACQUES CARTIER 35000 RENNES",
    "city": "35238",
    "phone": null,
    "email": null,
    "website": "https://www.pasquier.fr/",
    "latitude": 48.096892473,
    "longitude": -1.674176356,
    "hasWebsite": true,
    "hasActiveWebsite": true,
    "hasSocialMedia": false,
    "score": 10,
    "webVisibilityScore": 10,
    "status": "nouveau"
  },
  {
    "name": "BOULANGERIE ANTOINE",
    "sector": "artisans",
    "address": "4 RUE DU GROS CHENE 35400 SAINT-MALO",
    "city": "35288",
    "phone": null,
    "email": null,
    "website": "https://boulangerie-antoine.com/boutique/",
    "latitude": 48.624830817,
    "longitude": -2.002641258,
    "hasWebsite": true,
    "hasActiveWebsite": true,
    "hasSocialMedia": false,
    "score": 10,
    "webVisibilityScore": 10,
    "status": "nouveau"
  },
  {
    "name": "L'ARTISAN COULEURS",
    "sector": "BTP",
    "address": "9 RUE DES CHARMILLES 35510 CESSON-SEVIGNE",
    "city": "35051",
    "phone": null,
    "email": null,
    "website": "https://www.lartisanais.fr/notre-atelier",
    "latitude": 48.1028206842091,
    "longitude": -1.62152883680147,
    "hasWebsite": true,
    "hasActiveWebsite": true,
    "hasSocialMedia": false,
    "score": 10,
    "webVisibilityScore": 10,
    "status": "nouveau"
  },
  {
    "name": "L'ARTISAN FORMATEUR",
    "sector": "artisans",
    "address": "12 RUE DES LILAS 35510 CESSON-SEVIGNE",
    "city": "35051",
    "phone": null,
    "email": null,
    "website": "https://www.artisanat.fr/",
    "latitude": 48.115710165,
    "longitude": -1.614508713,
    "hasWebsite": true,
    "hasActiveWebsite": true,
    "hasSocialMedia": false,
    "score": 10,
    "webVisibilityScore": 10,
    "status": "nouveau"
  },
  {
    "name": "L'ARTISAN DE LA MAISON",
    "sector": "BTP",
    "address": "PONT REAN 5 RUE DE GOD LANDE 35580 GUICHEN",
    "city": "35126",
    "phone": null,
    "email": null,
    "website": "https://www.artisanat.fr/",
    "latitude": 47.998662232,
    "longitude": -1.774320213,
    "hasWebsite": true,
    "hasActiveWebsite": true,
    "hasSocialMedia": false,
    "score": 10,
    "webVisibilityScore": 10,
    "status": "nouveau"
  },
  {
    "name": "CIMEO CONSTRUCTION",
    "sector": "BTP",
    "address": "PARC D ACTIVITES DES QUATRE ROUTES LD LA LANDE 22270 JUGON-LES-LACS",
    "city": "22084",
    "phone": null,
    "email": null,
    "website": "https://www.cimeoconstruction.fr/",
    "latitude": 48.41033107,
    "longitude": -2.351283759,
    "hasWebsite": true,
    "hasActiveWebsite": true,
    "hasSocialMedia": false,
    "score": 10,
    "webVisibilityScore": 10,
    "status": "nouveau"
  },
  {
    "name": "SOCIETE EUROPEENNE DE DEVELOPPEMENT DE RESTAURANTS ITALIENS (SEDRI)",
    "sector": "artisans",
    "address": "BATIMENT A 3 ROUTE DU BOIS HAREL 35136 ST JACQUES DE LA LANDE",
    "city": "35281",
    "phone": null,
    "email": null,
    "website": "https://www.dnb.com/business-directory/company-profiles.societe_europeenne_de_developpement_de_restaurants_italiens.dcfceda7d5431fe714388915e4cb4f6b.html",
    "latitude": 48.0776277679025,
    "longitude": -1.71945208635241,
    "hasWebsite": true,
    "hasActiveWebsite": true,
    "hasSocialMedia": false,
    "score": 10,
    "webVisibilityScore": 10,
    "status": "nouveau"
  },
  {
    "name": "BOULANGERIE PLEURTUIT",
    "sector": "artisans",
    "address": "4 RUE DE L'HERELE 59750 FEIGNIES",
    "city": "59225",
    "phone": null,
    "email": null,
    "website": "https://www.boulangerielouise.com/boulangerie/boulangerie-louise-pleurtuit/",
    "latitude": 50.3162976176957,
    "longitude": 3.90934543541586,
    "hasWebsite": true,
    "hasActiveWebsite": true,
    "hasSocialMedia": false,
    "score": 10,
    "webVisibilityScore": 10,
    "status": "nouveau"
  },
  {
    "name": "BOULANGERIE SAINT-MALO",
    "sector": "artisans",
    "address": "4 RUE DE L'HERELE 59750 FEIGNIES",
    "city": "59225",
    "phone": null,
    "email": null,
    "website": "https://www.boulangerie-ange.fr/",
    "latitude": 50.293790652,
    "longitude": 3.9173508114,
    "hasWebsite": true,
    "hasActiveWebsite": true,
    "hasSocialMedia": false,
    "score": 10,
    "webVisibilityScore": 10,
    "status": "nouveau"
  },
  {
    "name": "BOULANGERIE DU PRIEURE",
    "sector": "artisans",
    "address": "16 PLACE DU PRIEURE 35420 LOUVIGNE-DU-DESERT",
    "city": "35162",
    "phone": null,
    "email": null,
    "website": "http://laboulangerieduprieure.fr/",
    "latitude": 48.482478032,
    "longitude": -1.123732306,
    "hasWebsite": true,
    "hasActiveWebsite": true,
    "hasSocialMedia": false,
    "score": 10,
    "webVisibilityScore": 10,
    "status": "nouveau"
  },
  {
    "name": "SCI DES ARTISANS",
    "sector": "artisans",
    "address": "PLACE DU CALVAIRE 35800 DINARD",
    "city": "35093",
    "phone": null,
    "email": null,
    "website": null,
    "latitude": 48.636528284,
    "longitude": -2.067697467,
    "hasWebsite": false,
    "hasActiveWebsite": false,
    "hasSocialMedia": false,
    "score": 35,
    "webVisibilityScore": 35,
    "status": "nouveau"
  },
  {
    "name": "L'ARTISANE",
    "sector": "artisans",
    "address": "2 QUAI DE RICHEMONT 35000 RENNES",
    "city": "35238",
    "phone": null,
    "email": null,
    "website": "https://www.agence-lartisane.com/",
    "latitude": 48.1098283696139,
    "longitude": -1.67371921103238,
    "hasWebsite": true,
    "hasActiveWebsite": true,
    "hasSocialMedia": false,
    "score": 10,
    "webVisibilityScore": 10,
    "status": "nouveau"
  },
  {
    "name": "L'ARTISAN (L'ARTISAN)",
    "sector": "artisans",
    "address": "1 RUE DE LA CALE 35120 CHERRUEIX",
    "city": "35078",
    "phone": null,
    "email": null,
    "website": "https://www.agence-lartisane.com/",
    "latitude": 48.6057404976532,
    "longitude": -1.71055588809301,
    "hasWebsite": true,
    "hasActiveWebsite": true,
    "hasSocialMedia": false,
    "score": 10,
    "webVisibilityScore": 10,
    "status": "nouveau"
  },
  {
    "name": "JBH DES ARTISANS",
    "sector": "artisans",
    "address": "4 RUE HAYE DU CHASTELET 35500 VITRE",
    "city": "35360",
    "phone": null,
    "email": null,
    "website": "https://entreprises.lagazettefrance.fr/entreprise/jbh-des-artisans-952390102",
    "latitude": 48.129435821,
    "longitude": -1.215760069,
    "hasWebsite": true,
    "hasActiveWebsite": true,
    "hasSocialMedia": false,
    "score": 10,
    "webVisibilityScore": 10,
    "status": "nouveau"
  },
  {
    "name": "SCI LES ARTISANS",
    "sector": "artisans",
    "address": "ZI SUD EST RUE DES LANDELLES 35510 CESSON-SEVIGNE",
    "city": "35051",
    "phone": null,
    "email": null,
    "website": "https://avis-situation-sirene.insee.fr/",
    "latitude": 48.101115902,
    "longitude": -1.627346493,
    "hasWebsite": true,
    "hasActiveWebsite": true,
    "hasSocialMedia": false,
    "score": 10,
    "webVisibilityScore": 10,
    "status": "nouveau"
  },
  {
    "name": "SCI DES ARTISANS",
    "sector": "artisans",
    "address": "39 RUE DU BOCAGE 35500 VITRE",
    "city": "35360",
    "phone": null,
    "email": null,
    "website": "https://www.registre.entreprises.gouv.fr/",
    "latitude": 48.1032064734399,
    "longitude": -1.21428903010717,
    "hasWebsite": true,
    "hasActiveWebsite": true,
    "hasSocialMedia": false,
    "score": 10,
    "webVisibilityScore": 10,
    "status": "nouveau"
  },
  {
    "name": "TERRES D'ARTISANS",
    "sector": "artisans",
    "address": "16 RUE DE LA PETITE TOUCHE 35000 RENNES",
    "city": "35238",
    "phone": null,
    "email": null,
    "website": "https://terredesarts-rennes.fr/",
    "latitude": 48.114484142,
    "longitude": -1.690953651,
    "hasWebsite": true,
    "hasActiveWebsite": true,
    "hasSocialMedia": false,
    "score": 10,
    "webVisibilityScore": 10,
    "status": "nouveau"
  },
  {
    "name": "TY' ARTISANS",
    "sector": "artisans",
    "address": "46 LD LE GRAND SOUET 35120 ROZ-LANDRIEUX",
    "city": "35246",
    "phone": null,
    "email": null,
    "website": "https://www.mestravaux.com/entreprise/ty-rennais/",
    "latitude": 48.558650079,
    "longitude": -1.843949887,
    "hasWebsite": true,
    "hasActiveWebsite": true,
    "hasSocialMedia": false,
    "score": 10,
    "webVisibilityScore": 10,
    "status": "nouveau"
  },
  {
    "name": "LES ARTISANS GOURMANDS",
    "sector": "artisans",
    "address": "1111 CHAUSSEE DES CORSAIRES 35400 SAINT-MALO",
    "city": "35288",
    "phone": null,
    "email": null,
    "website": "https://www.artisans-gourmands.fr/",
    "latitude": 48.642185783,
    "longitude": -2.01928344,
    "hasWebsite": true,
    "hasActiveWebsite": true,
    "hasSocialMedia": false,
    "score": 10,
    "webVisibilityScore": 10,
    "status": "nouveau"
  },
  {
    "name": "ARTISANS DU MONDE",
    "sector": "artisans",
    "address": "53 RUE NICOLAS BOUVIER 35400 SAINT-MALO",
    "city": "35288",
    "phone": null,
    "email": null,
    "website": "https://artisansdumonderennes.com/",
    "latitude": 48.647238504,
    "longitude": -2.005496377,
    "hasWebsite": true,
    "hasActiveWebsite": true,
    "hasSocialMedia": false,
    "score": 10,
    "webVisibilityScore": 10,
    "status": "nouveau"
  },
  {
    "name": "MB COIFFEUR VISAGISTE",
    "sector": "artisans",
    "address": "29 RUE JEAN BRAS 35200 RENNES",
    "city": "35238",
    "phone": null,
    "email": null,
    "website": "https://www.meilleurscoiffeurs.fr/professionnels/WFRfW1tWRkI",
    "latitude": 48.089033727,
    "longitude": -1.670663671,
    "hasWebsite": true,
    "hasActiveWebsite": true,
    "hasSocialMedia": false,
    "score": 10,
    "webVisibilityScore": 10,
    "status": "nouveau"
  },
  {
    "name": "J-C LE PLOMBIER",
    "sector": "BTP",
    "address": "4 RUE DES SAULES 35750 IFFENDIC",
    "city": "35133",
    "phone": null,
    "email": null,
    "website": "https://jcelectriciteplomberie.fr/",
    "latitude": 48.133905148,
    "longitude": -2.03528831,
    "hasWebsite": true,
    "hasActiveWebsite": true,
    "hasSocialMedia": false,
    "score": 10,
    "webVisibilityScore": 10,
    "status": "nouveau"
  },
  {
    "name": "MON PLOMBIER HUGO",
    "sector": "BTP",
    "address": "135 RUE D'ANTRAIN 35700 RENNES",
    "city": "35238",
    "phone": null,
    "email": null,
    "website": "https://monplombierhugo.fr/",
    "latitude": 48.1238346483726,
    "longitude": -1.66867722374721,
    "hasWebsite": true,
    "hasActiveWebsite": true,
    "hasSocialMedia": false,
    "score": 10,
    "webVisibilityScore": 10,
    "status": "nouveau"
  },
  {
    "name": "LE PLOMBIER BRETON (LE PLOMBIER BRETON)",
    "sector": "BTP",
    "address": "40 RUE EMMANUEL DE FRESLON 35250 SAINT-AUBIN-D'AUBIGNE",
    "city": "35251",
    "phone": null,
    "email": null,
    "website": "https://le-plombier-breton.fr/",
    "latitude": 48.2632900426977,
    "longitude": -1.6170159675378,
    "hasWebsite": true,
    "hasActiveWebsite": true,
    "hasSocialMedia": false,
    "score": 10,
    "webVisibilityScore": 10,
    "status": "nouveau"
  },
  {
    "name": "L'ATELIER DU PLOMBIER",
    "sector": "BTP",
    "address": "2 RUE DE LA MARZELLE 35850 ROMILLE",
    "city": "35245",
    "phone": null,
    "email": null,
    "website": "https://rennes.maville.com/actu/actudet_-romille.-l-atelier-du-plombier-a-ouvert-_7-7197757_actu.Htm",
    "latitude": 48.2223986166495,
    "longitude": -1.89101592443893,
    "hasWebsite": true,
    "hasActiveWebsite": true,
    "hasSocialMedia": false,
    "score": 10,
    "webVisibilityScore": 10,
    "status": "nouveau"
  },
  {
    "name": "LES ELECTRICIENS PLOMBIERS BRETONS",
    "sector": "BTP",
    "address": "1 RUE DE FLANDRE 93290 TREMBLAY-EN-FRANCE",
    "city": "93073",
    "phone": null,
    "email": null,
    "website": "https://www.bs-plombelec.fr/index.asp",
    "latitude": 48.943289532,
    "longitude": 2.5714465248,
    "hasWebsite": true,
    "hasActiveWebsite": true,
    "hasSocialMedia": false,
    "score": 10,
    "webVisibilityScore": 10,
    "status": "nouveau"
  },
  {
    "name": "SIMON WERQUIN PLOMBIER - CHAUFFAGISTE (PCI PLOMBERIE CHAUFFAGE INTERVENTION) (SWPC)",
    "sector": "BTP",
    "address": "14 LE DESERSEUL 35150 PIRE-CHANCE",
    "city": "35220",
    "phone": null,
    "email": null,
    "website": "https://chauffagiste-installation.fr/bretagne/ille-et-vilaine/pire-chance/simon-werquin-plombier-chauffagiste-pci-plomberie-chauffage-intervention-swpc-822147419.html",
    "latitude": 47.986603961,
    "longitude": -1.418164154,
    "hasWebsite": true,
    "hasActiveWebsite": true,
    "hasSocialMedia": false,
    "score": 10,
    "webVisibilityScore": 10,
    "status": "nouveau"
  },
  {
    "name": "MON PLOMBIER DEBOUCHEUR",
    "sector": "artisans",
    "address": "801 AVENUE DES CHAMPS BLANCS 35510 CESSON-SEVIGNE",
    "city": "35051",
    "phone": null,
    "email": null,
    "website": "https://www.debouchrennes.fr/",
    "latitude": 48.13343498468916,
    "longitude": -1.6182640222526685,
    "hasWebsite": true,
    "hasActiveWebsite": true,
    "hasSocialMedia": false,
    "score": 10,
    "webVisibilityScore": 10,
    "status": "nouveau"
  },
  {
    "name": "ANSELMI ASSOCIES PLOMBIERS (AAP)",
    "sector": "BTP",
    "address": "LE GANNEDEL 35660 LA CHAPELLE-DE-BRAIN",
    "city": "35064",
    "phone": null,
    "email": null,
    "website": "https://entreprises.lagazettefrance.fr/entreprise/anselmi-associes-plombiers-501870273",
    "latitude": 47.694664305,
    "longitude": -1.953972534,
    "hasWebsite": true,
    "hasActiveWebsite": true,
    "hasSocialMedia": false,
    "score": 10,
    "webVisibilityScore": 10,
    "status": "nouveau"
  },
  {
    "name": "CHOLLET GWEN PLOMBIER CHAUFFAGISTE FRIGORIFISTE (CHOLLET GWEN PLOMBIER CHAUFFAGISTE FRIGORIFISTE)",
    "sector": "BTP",
    "address": "11 LES VAUX 35190 TREVERIEN",
    "city": "35345",
    "phone": null,
    "email": null,
    "website": "https://entreprises.lefigaro.fr/chollet-gwen-plombier-chauffagiste-frigorifiste-35/entreprise-902678424",
    "latitude": 48.378943405,
    "longitude": -1.934414959,
    "hasWebsite": true,
    "hasActiveWebsite": true,
    "hasSocialMedia": false,
    "score": 10,
    "webVisibilityScore": 10,
    "status": "nouveau"
  },
  {
    "name": "ERWAN GEHIN (GEHIN PLOMBIER)",
    "sector": "BTP",
    "address": "7 RUE CARDINAL PAUL GOUYON 35000 RENNES",
    "city": "35238",
    "phone": null,
    "email": null,
    "website": "https://entreprises.lagazettefrance.fr/entreprise/gehin-838135556",
    "latitude": 48.117587305083,
    "longitude": -1.68822146017534,
    "hasWebsite": true,
    "hasActiveWebsite": true,
    "hasSocialMedia": false,
    "score": 10,
    "webVisibilityScore": 10,
    "status": "nouveau"
  },
  {
    "name": "JEROME MALLARD (J.MALLARD PLOMBIER-CHAUFFAGISTE)",
    "sector": "BTP",
    "address": "RESIDENCE LES BLEUETS 5 RUE DE ROMILLE 35590 SAINT-GILLES",
    "city": "35275",
    "phone": null,
    "email": null,
    "website": "https://entreprises.lagazettefrance.fr/entreprise/mallard-514390723",
    "latitude": 48.156332744,
    "longitude": -1.82967735,
    "hasWebsite": true,
    "hasActiveWebsite": true,
    "hasSocialMedia": false,
    "score": 10,
    "webVisibilityScore": 10,
    "status": "nouveau"
  },
  {
    "name": "QUENTIN PERAN ([ND])",
    "sector": "artisans",
    "address": "[ND] [ND]-[ND] [ND] [ND] [ND] [ND] [ND] [ND]",
    "city": "35228",
    "phone": null,
    "email": null,
    "website": "https://infonet.fr/dirigeants/66aa4f435da7ac2c4bff7f52/",
    "latitude": 48.1111,
    "longitude": -1.68,
    "hasWebsite": true,
    "hasActiveWebsite": true,
    "hasSocialMedia": false,
    "score": 10,
    "webVisibilityScore": 10,
    "status": "nouveau"
  },
  {
    "name": "AS ELECTRICIEN",
    "sector": "BTP",
    "address": "5 RUE DU DOCTEUR RICOUX 35680 DOMALAIN",
    "city": "35097",
    "phone": null,
    "email": null,
    "website": "https://www.electricien-rennes.com/",
    "latitude": 47.9958669039621,
    "longitude": -1.24351500465034,
    "hasWebsite": true,
    "hasActiveWebsite": true,
    "hasSocialMedia": false,
    "score": 10,
    "webVisibilityScore": 10,
    "status": "nouveau"
  },
  {
    "name": "DG ARTISAN ELECTRICIEN",
    "sector": "BTP",
    "address": "8 RUE DU MARCHE 35260 CANCALE",
    "city": "35049",
    "phone": null,
    "email": null,
    "website": "https://www.artisan-en-ligne.com/artisan-dg-electricite-195290",
    "latitude": 48.676352541787,
    "longitude": -1.85106796820644,
    "hasWebsite": true,
    "hasActiveWebsite": true,
    "hasSocialMedia": false,
    "score": 10,
    "webVisibilityScore": 10,
    "status": "nouveau"
  },
  {
    "name": "ANTHONY DANTEN (EPO ELECTRICIENS DU PHARE OUEST)",
    "sector": "BTP",
    "address": "ROUDUN 35320 POLIGNE",
    "city": "35231",
    "phone": null,
    "email": null,
    "website": "https://app.dataprospects.fr/entreprises/MONSIEUR-ANTHONY-DANTEN/944145465",
    "latitude": 47.8825955268811,
    "longitude": -1.68199804517217,
    "hasWebsite": true,
    "hasActiveWebsite": true,
    "hasSocialMedia": false,
    "score": 10,
    "webVisibilityScore": 10,
    "status": "nouveau"
  },
  {
    "name": "JEROME GUILLARD (L'ELECTRICIEN RENNAIS)",
    "sector": "BTP",
    "address": "BATIMENT C2 160 RUE DE BREST 35000 RENNES",
    "city": "35238",
    "phone": null,
    "email": null,
    "website": "https://lelectricienrennais.com/",
    "latitude": 48.1135868250301,
    "longitude": -1.69544247076601,
    "hasWebsite": true,
    "hasActiveWebsite": true,
    "hasSocialMedia": false,
    "score": 10,
    "webVisibilityScore": 10,
    "status": "nouveau"
  },
  {
    "name": "SA D'HLM  AIGUILLON CONSTRUCTION",
    "sector": "artisans",
    "address": "60 AVENUE DU CANADA 35200 RENNES",
    "city": "35238",
    "phone": null,
    "email": null,
    "website": "https://www.aiguillon-construction.fr/",
    "latitude": 48.0812796119514,
    "longitude": -1.67856101689343,
    "hasWebsite": true,
    "hasActiveWebsite": true,
    "hasSocialMedia": false,
    "score": 10,
    "webVisibilityScore": 10,
    "status": "nouveau"
  },
  {
    "name": "IRISOLARIS CONSTRUCTION",
    "sector": "artisans",
    "address": "BAT C 1200 AVENUE OLIVIER PERROY 13790 ROUSSET",
    "city": "13087",
    "phone": null,
    "email": null,
    "website": "https://irisolaris.com/",
    "latitude": 43.4706291177875,
    "longitude": 5.59881551024359,
    "hasWebsite": true,
    "hasActiveWebsite": true,
    "hasSocialMedia": false,
    "score": 10,
    "webVisibilityScore": 10,
    "status": "nouveau"
  },
  {
    "name": "DBL CONSTRUCTIONS",
    "sector": "artisans",
    "address": "ZAC DE L'EPI D'OR 22 RUE DE L'EPI D'OR 94800 VILLEJUIF",
    "city": "94076",
    "phone": null,
    "email": null,
    "website": "https://www.dblconstructions.fr/",
    "latitude": 48.785590798,
    "longitude": 2.3525423299,
    "hasWebsite": true,
    "hasActiveWebsite": true,
    "hasSocialMedia": false,
    "score": 10,
    "webVisibilityScore": 10,
    "status": "nouveau"
  },
  {
    "name": "ESPERANCE SPORTS & LOISIRS BECHEREL",
    "sector": "artisans",
    "address": "PLACE TANGUY DE KERNIER 35190 BECHEREL",
    "city": "35022",
    "phone": null,
    "email": null,
    "website": "https://www.helloasso.com/associations/esperance-sports-loisirs-becherel",
    "latitude": 48.2964306587175,
    "longitude": -1.94576547352399,
    "hasWebsite": true,
    "hasActiveWebsite": true,
    "hasSocialMedia": false,
    "score": 10,
    "webVisibilityScore": 10,
    "status": "nouveau"
  },
  {
    "name": "ESPERANCE LA BOUEXIERE BADMINTON",
    "sector": "artisans",
    "address": "SALLE DE SPORT 35340 LA BOUEXIERE",
    "city": "35031",
    "phone": null,
    "email": null,
    "website": "https://badmintonesperance.weebly.com/",
    "latitude": 48.188504717,
    "longitude": -1.440921579,
    "hasWebsite": true,
    "hasActiveWebsite": true,
    "hasSocialMedia": false,
    "score": 10,
    "webVisibilityScore": 10,
    "status": "nouveau"
  },
  {
    "name": "KERWATT (KERWATT S.A.S)",
    "sector": "artisans",
    "address": "7 RUE SAINT-CONWOION 35600 REDON",
    "city": "35236",
    "phone": null,
    "email": null,
    "website": "https://kerwatt.bzh/",
    "latitude": 47.6543703196568,
    "longitude": -2.08657008644215,
    "hasWebsite": true,
    "hasActiveWebsite": true,
    "hasSocialMedia": false,
    "score": 10,
    "webVisibilityScore": 10,
    "status": "nouveau"
  },
  {
    "name": "THOMAS MONFRAIS",
    "sector": "artisans",
    "address": "57 RUE VILLE PEPIN 35400 SAINT-MALO",
    "city": "35288",
    "phone": null,
    "email": null,
    "website": "https://entreprises.lefigaro.fr/monsieur-thomas-monfrais-35/entreprise-822124830",
    "latitude": 48.634609286,
    "longitude": -2.013043025,
    "hasWebsite": true,
    "hasActiveWebsite": true,
    "hasSocialMedia": false,
    "score": 10,
    "webVisibilityScore": 10,
    "status": "nouveau"
  },
  {
    "name": "VINCENT ROUSSEL (BREIZH RAMONE TA HUTTE)",
    "sector": "artisans",
    "address": "2 LES ILOTS 35190 TREVERIEN",
    "city": "35345",
    "phone": null,
    "email": null,
    "website": "https://breizhramonetahutte.fr/votre-professionnel-en-ramonage-et-entretien/",
    "latitude": 48.377109026,
    "longitude": -1.935575067,
    "hasWebsite": true,
    "hasActiveWebsite": true,
    "hasSocialMedia": false,
    "score": 10,
    "webVisibilityScore": 10,
    "status": "nouveau"
  }
]